n_id,longitude,latitude,type,voltage,frequency,name,operator,not_accurate
199309340,15.4055375481,46.5781563337,substation,0,,RTP Ozbalt,,
171608231,15.5307649994,46.5537595043,substation,0,,RTP,,
129377014,15.2765514406,46.5866041397,substation,0,,HE Vuhred,,
121547295,14.407294478,46.1837126782,substation,110000,,HE Mavčiče,,
306834171,14.3562264573,46.2291795414,substation,0,,RTP Labore,,
35041274,14.3261726389,46.2526122204,substation,0,,RTP Okroglo,,
167068843,14.4844483665,46.1028413806,substation,110000,50,RTP Kleče,ELES,Yes
34853414,15.6018525485,46.5518106277,substation,0,,RTP Pekre,,
113578863,15.6956755477,46.5219550289,substation,0,,RTP Maribor,,
171257375,15.5652363982,46.3816278323,substation,0,,RTP Slovenska BIstrica,,
171247394,15.604475482,46.5682968318,substation,0,,HE Mariborski otok,,
171242382,15.6274734653,46.5609512663,substation,0,,RTP Koroška vrata,,
170856590,15.6738251741,46.5200551891,substation,0,,RTP Dobrava,,
280821359,15.2852333214,46.2430551984,substation,0,,,,
171277752,15.4381230751,46.3399611858,substation,0,,RTP Slovenske Konjice,,
171047486,15.7886825957,46.3907000139,substation,0,,RTP Kidričevo,,
113568896,15.732732943,46.3987043027,substation,0,,RTP Cirkovce,,
171223453,16.0337219374,46.402549334,plant,0,,HE Formin,,
171127243,15.880675939,46.4154539944,substation,0,,RTP Ptuj,,
198587974,14.9925675908,46.3383947008,substation,0,,RTP,,
119244495,15.1296802164,46.2761511433,substation,0,,RTP Podlog,,
199456336,15.1485250643,45.8190632865,substation,0,,RTP Bršljin,,
198740080,15.1332119067,45.8279292539,substation,110000,,RP Hudo,,
199456340,14.646938286,45.9446285362,substation,110000,,RTP Grosuplje,Elektro Ljubljana,
138362793,14.6136864184,46.0930735761,substation,0,,RTP Beričevo,ELES,
199456341,14.5945651873,46.211650249,substation,0,,RTP Kamnik,,
198965564,14.606287915,46.1449080224,substation,0,,RTP Domžale,,
199456345,15.0045855021,46.1379148328,substation,0,,RTP Potoška vas,,
286599451,15.0554356745,46.1251802761,substation,0,,RTP Trbovlje,,
199456347,14.4821639774,46.0387120636,substation,0,,RTP Vič,,
199456348,14.4859464379,46.0797115561,substation,0,,RTP Šiška,,
198740079,15.4790047468,45.9958527229,substation,0,,,,
262103381,15.5138944132,45.9411496103,substation,0,,,,
306794096,13.5969841217,46.0513839068,substation,110000,,HE Plave,,
370156011,13.6278485136,46.07247141,substation,0,,RTP Anhovo,,
369889751,13.6880430716,46.1140289776,generator,0,,ČHE Avče,,
280821361,15.6571080207,46.2396375998,substation,0,,,,
280821367,15.4080783318,46.216840873,substation,0,,,,
199131958,14.2374156357,45.9255074274,substation,0,,RTP Logatec,,
199131955,14.2961309324,45.9766794523,substation,0,,RTP Vrhnika,,
172406389,16.0226515976,46.6507258802,substation,0,,RTP Radenci,,
172405235,16.1781113173,46.6633573779,substation,0,,RTP Murska Sobota,,
171229302,16.1923024762,46.5259947307,substation,0,,RTP Ljutomer,,
200118427,16.4436125194,46.5393197223,substation,0,,,barrier,
171227992,16.1654646087,46.4117026566,substation,0,,RTP Ormož,,
280821368,15.308135195,46.2226368276,substation,0,,,,
170978399,15.7873137803,46.4481657114,plant,0,,HE Zlatoličje,,
262103358,15.4786988676,45.9967693891,substation,0,,,,
159593130,15.7162741557,46.2212288828,substation,0,,TS Straža,,
208625989,15.8694543389,46.1481578297,substation,0,,,,
99634141,16.1204624299,46.2337060079,substation,0,,TS Ivanec,,
306834196,14.3291955553,46.1684099101,substation,0,,RTP Škofja Loka,,
186330420,14.5232085997,46.1001209264,substation,0,,RTP Črnuče,,
35073279,14.5457322767,46.0579173033,generator,0,,Termoelektrarna Toplarna Ljubljana,,
376534710,13.9023130339,45.8731657955,substation,0,,RTP,,
96747435,13.9687577839,45.6912801294,substation,110000,,RTP Divača,,Yes
132468928,14.9557050913,46.6339514987,substation,110000,50,Kraftwerk Koralpe,KELAG,
98291700,14.936241629,46.6431663155,plant,0,,Kraftwerk Lavamünd,Austrian Hydro Power AG,
161693379,15.0919325181,46.4999965469,substation,0,,RTP,,
198773972,15.0188315771,46.5852449943,substation,0,,,,
128572102,14.3277031036,45.36608677,substation,0,,TS Matulji,,
276296152,14.2250612958,45.5661135884,substation,0,,Ilirska Bistrica,,
198773974,15.1545201518,46.5917019076,substation,0,,RTP Vuzenica,,
306834179,14.3763892279,46.2442644885,substation,0,,RTP Primskovo,,
242310951,14.1912896334,45.7622291612,substation,110000,,RTP Postojna,,
199389074,14.1770809496,45.6631296808,substation,110000,,RTP Pivka,,
199131954,13.7363976794,45.5333720844,substation,0,,RTP Koper,,
123454320,13.6623302356,45.4171499613,station,0,,TS Buje,,
208270146,13.8721039089,45.7111392485,substation,0,,RTP,,
306692456,13.6454283619,45.9153969184,substation,110000,,RTP Vrtojba,,
306692448,13.6612571434,45.9590373238,substation,110000,,RTP Nova Gorica,,
369889747,13.747301369,46.1724526419,substation,110000,,RTP Tolmin,,
171246987,15.841751475,46.5788114527,substation,0,,RTP Lenart,,
171242383,15.6587026906,46.5570743949,substation,0,,RTP Melje,,
138362817,14.5746432808,46.0648294168,substation,0,,RTP Polje,Elektro Ljubljana,
105894370,15.5145808613,45.940704113,substation,0,,RTP Krško,,
89819245,15.5161535041,45.9379133707,plant,0,,Nuklearna elektrarna Krško,,
89817617,14.5640473002,45.3162741199,sub_station,400000,,TS Melina,HEP,
89818719,15.8692808597,45.6814306155,sub_station,400000,,TS Tumbri,HEP,
119239942,15.0533078515,46.3726793752,generator,0,,Termoelektrarna Šoštanj,,
