n_id,longitude,latitude,type,voltage,frequency,name,operator
274998912,43.9094728553,54.0168924193,substation,220000,,Мокша,
113585698,44.9141933284,54.0515299195,substation,220000,,ПС 220кВ Рузаевка,
72288676,43.9374672597,55.0962762636,substation,500000,,Арзамасская,ФСК ЕЭС
327816066,46.5635865871,53.1291778647,substation,220000,,Кузнецк,
211405161,45.0064682799,53.2546386205,substation,220000,,Пенза-1,
207204995,46.3776860482,55.4981492638,substation,220000-110000-6000,,ПС Венец 220/110/6 кВ,
305893253,47.3219657259,55.9775297028,substation,220000-10000,,ПС Абашево 220/10 кВ,
53366641,47.5093672014,55.523994011,substation,220000-110000-6000,,ПС Канаш 220/110/6 кВ,
121218185,48.2341939424,55.7665145924,substation,220000-110000-10000,,ПС 220/110/10 кВ Тюрлема,ОАО «МРСК Волги»
107692183,47.8853200377,56.6065526842,substation,220000,50,ПС Чигашево 220/110кВ,
93292147,48.4083765532,55.9800977385,substation,500000,,ПС Помары,
305832836,44.3745064796,55.0316047777,substation,220000,,Лукояновская,
232164616,57.788469761,58.1224481977,station,None,,,
229942593,57.8251500274,58.127173044,station,None,,,
274937610,49.6737899185,52.814486542,substation,220000,,ПС 220 кВ Головная,
161082145,49.7568921978,53.004829117,substation,220000,,ПС 220 кВ Томыловская,
93494543,45.9586312502,55.2383689404,substation,220000,,Сеченово-1,
93508340,45.9642731521,55.241937602,substation,220000,,Сеченово-2,
93494546,45.962887871,55.2360051469,substation,220000,,РП Сеченово,
89430545,49.2545879136,55.8894993,station,None,,ПС Киндери,
62194541,49.1636694835,55.8375021676,substation,220000,,ПС Магистральная,ТатЭнерго
327138157,45.8277028763,55.6098232742,substation,220000,,"ПС 220кВ ""Пильна""",
92419131,44.8658338628,54.8241609216,substation,500000,,Осиновка,ФСК ЕЭС
277905350,45.4289512573,55.5292917061,substation,220000-110000,,Сергач,
224208787,49.1159721318,56.986969107,substation,220000,,ПС Дубники,
327325460,44.1946582863,56.1109924781,substation,220000,,Кудьма,
121048356,44.2093826812,55.5137277061,substation,220000,,"ПС 220кВ ""Бобыльская""",
171147802,50.8351806906,58.4552038457,station,None,,,
240018999,51.1127695699,58.3971887299,sub_station,None,,,
158349339,56.8396253905,59.4657505715,station,220000,,Подстанция 220 кВ Космос,
128036424,57.0511237699,59.3919512595,substation,500000-220000,,Северная,
306106528,44.3271719982,51.9639034132,substation,None,,Екатериновка-газовая,
328463572,44.3153900986,52.0555663972,substation,None,,,
224261932,44.9822753668,51.8986111466,station,None,,Аткарская,ОАО «ФСК ЕЭС»
327226015,44.6398365454,54.6695377146,substation,220000,,Починковская-2,
103735794,45.2235008275,54.2395551835,substation,220000,,Центролит,
48949159,47.7529600712,52.0526362088,substation,220000-35000,,,
51711046,47.7677637662,52.0110772194,substation,220000-110000-fixme,,,
276080500,45.8441808485,54.4553298341,substation,220000,,Комсомольская,
96826924,58.3225688934,51.2624173256,substation,220000-110000-10000,,ПС 220 кВ Новотроицкая,
97145033,58.4571319399,51.2833044613,substation,220000-110000-10000,,ПС 220 кВ Орская,
137376045,48.6061488712,55.9883287867,station,None,,,
132783542,48.3616525995,55.9133569992,substation,220000,,ПС Волжская,
327226025,44.6321049292,54.6674404232,substation,220000,,Починковская-1,
94214974,51.9571131852,55.5657912937,substation,None,,ПС Нижнекамская,
104227388,51.9443845875,55.5794710863,generator,None,,НкТЭЦ-2,
96563667,56.445885376,58.4972764166,substation,None,,,
83478009,56.343980102,58.4972801119,plant,None,,Пермская ГРЭС,ОАО «Интер РАО – Электрогенерация»
95488527,52.4954044636,54.7519892878,substation,220000-110000-35000-6000,,ПС Абдрахманово,
95488500,52.4993739856,54.5908977139,sub_station,None,,ПС Письмянка,
274213600,48.2185205614,54.8835038025,substation,220000,,ПС Студенец,
82458858,54.092152537,56.7851061271,substation,220000,50,ОРУ 220 кВ,ОАО «РусГидро»
273327356,54.0918384022,56.786281403,plant,None,50,Воткинская ГЭС,ОАО «РусГидро»
110601218,49.4716107008,53.422106903,substation,500000,,,
245072101,49.4795110159,53.426433571,plant,None,,Жигулёвская ГЭС,ОАО РусГидро
131490223,47.1286219186,54.0603699836,substation,None,,ПС Вешкайма,ФСК ЕЭС
136586702,49.6979635291,53.6580508812,substation,500000-220000-110000,,ПС Азот,
219655813,54.9355713116,56.3276356914,substation,500000-220000-110000,,ПС Буйская,
53015400,57.690591349,58.2717884724,substation,500000,,ПС Калино,ФСК ЕЭС
376942192,54.5771824211,56.2458897431,substation,None,,,
114285735,56.4887137774,54.8358135306,substation,500000-220000-10000,,ПС Уфимская,
92325642,42.1963939813,55.3689932094,substation,500000,,Радуга,ФСК ЕЭС
150285837,55.8278451619,54.4284793276,substation,500000-220000-110000,,ПС Бекетово,
88028486,52.7516468447,54.4859938116,station,500000,,"ПС 500 кВ ""Бугульма""",
99190583,58.9669059446,53.5572124188,substation,500000-220000-110000-fixme,,"""Смеловская"" 500 кВ",
131508245,47.230949961,53.1209814002,substation,500000,,ПС Ключики,ФСК ЕЭС
193513250,56.3587842695,58.4907463044,substation,None,,,
219112646,59.1440414495,53.5522326208,substation,None,,,
363144177,58.8042553623,51.751767349,substation,None,,ОРУ 500 кВ ИрГРЭС - 1,
90273320,45.7876471448,51.6596612162,substation,None,,Курдюм,
48906740,47.9564659434,52.0912681628,plant,None,,Балаковская АЭС,Росэнергоатом
82967790,44.7901503308,53.1251712298,substation,None,,ПС Пенза-2,ФСК ЕЭС
227835712,50.0721559485,52.700346869,substation,500000-220000,,ПС 500 кВ Красноармейская,
229649869,52.7619181741,56.5596415289,substation,500000,50,ПС 500 кВ Удмуртская,МЭС Урала
82459105,54.0940655986,56.786381088,substation,500000,50,ОРУ 500 кВ,ОАО «РусГидро»
169556579,59.0094222881,55.1203625828,station,None,,ПC Приваловская 500 кВ,
113767652,57.9722123414,54.9892959034,station,500000,,ПС Кропачево,
