n_id,longitude,latitude,type,voltage,frequency,name,operator,not_accurate
216498433,130.764771996,32.6680007909,substation,220000;110000;66000,60,九州電力 南熊本変電所,九州電力,
216605551,130.785358076,32.8481429715,substation,110000;66000,60,,,
405605910,130.747433116,32.7835861647,substation,110000;66000,60,神水変電所,九州電力,
196291845,132.438693175,34.403203547,substation,110000,60,,,
170974393,132.442099989,34.4262179216,substation,110000,60,北広島変電所 (Kita-Hiroshima Hendensho),,
317800070,134.0311623,34.7620577333,substation,110000,60,山陽変電所,,
241822623,134.025119544,34.8881152865,substation,500000;220000;110000,,,,
317557313,133.726095475,34.5276496782,substation,110000,60,水島変電所,,
242389825,133.742099464,34.5649433705,substation,110000,60,倉敷変電所,,
317800072,134.167734428,34.7583550287,substation,110000,60,備前変電所,中国電力株式会社,
317829086,134.056014138,35.0389416393,substation,110000,60,南津山変電所,,
320724309,131.884566045,34.6865131033,substation,110000,60,,,
320853780,132.131293263,34.4808140054,substation,110000,60,吉和変電所,,
317416612,131.97968589,34.6976354075,substation,500000,60,西島根変電所,,
317641611,133.182276074,34.2995882454,substation,110000,,,,
317641613,133.178321354,34.4220973438,substation,110000,60,尾道変電所,,
317641612,133.183555115,34.5006976368,substation,110000,60,北尾道変電所,,
319463469,131.847932775,34.030712612,substation,110000,60,,,
319463514,131.851466752,34.0128760748,substation,220000;110000,60,下松発電所,,
318564837,131.824648761,34.059272366,substation,110000,60,徳山変電所,,
318564836,131.787990095,34.0700099104,substation,110000,60,川崎変電所,,
319371123,131.500858823,34.0458512549,substation,110000,60,佐野変電所 (Sano Hendensho),,
243471278,131.849554618,34.1226534132,substation,220000,60,,,
319371122,131.495756687,34.1083087207,substation,220000,60,,,
170974372,132.538408194,34.4400154651,substation,220000;110000,60,広島変電所,中国電力株式会社,
179935434,132.505210576,34.4029850925,substation,110000,60,東広島変電所,,
320853779,131.955837185,34.3579492333,substation,110000,60,六日市変電所,,
193544791,132.257539442,34.4125158059,substation,500000,,新西広島変電所 (Shin Nishi Hiroshima Hendensho),中国電力株式会社,
317991388,132.509608847,35.190743459,substation,110000,60,,,
317991390,132.836531106,34.7962229278,substation,110000,60,三次変電所 (Miyoshi Hendensho),,
317416610,132.582571635,34.2561174819,substation,110000,60,,,
317734437,133.881746974,34.6690832884,substation,110000,60,,,
317922273,133.909079237,34.671186384,substation,110000,60,,,
242159098,133.863878048,34.7484942172,substation,220000;110000,60,岡山変電所,,
317416617,132.617070635,34.2441873372,substation,110000,60,呉変電所,,
317416619,132.627481494,34.3196897029,substation,110000,60,黒瀬変電所 (Kurose Hendensho),,
179743820,132.578116939,34.4038460097,substation,110000,60,,,
216496817,130.772719735,32.2230466802,substation,220000;66000,60,九州電力人吉変電所,九州電力株式会社,
240809426,130.493913285,31.9875602878,generator,0,,川内川第一水力発電所,,
317525043,133.34050001,35.3891965808,substation,110000,60,,,
317525048,133.33715171,35.4177799308,substation,110000,60,米子変電所 (Yonago Hendensho),,
242103481,133.40575856,35.2961246998,substation,500000,60,日野変電所,,
242389846,133.692532644,34.6048501446,substation,0,,,,
171037112,132.829029857,35.3688139793,substation,0,,,,
317511894,132.719427256,35.3281492166,substation,110000,60,,,
317520870,133.042560957,35.4322856561,substation,110000,60,玉造変電所 (Tamatsukuri Hendensho),,
317734460,134.034165639,34.6615081756,substation,110000,60,,,
242159094,134.023903359,34.6599563297,substation,110000,60,西大寺変電所 (Saidaiji Hendensho),,
320724295,132.149258025,34.8612537129,substation,110000,60,,,
317796058,133.69398656,35.2815347714,substation,110000,60,蒜山変電所 (Hiruzen Hendensho),,
317796052,133.836916341,35.4274551773,substation,110000,60,打吹発電所,,
317852635,133.884627307,34.6272593129,substation,110000,60,,,
317922271,133.894976665,34.6365477786,substation,110000,60,,,
317852636,133.973365709,34.7000716657,substation,110000,60,,,
317852641,133.974295179,34.6935290254,substation,110000,60,国府市場変電所,,
317557240,133.829440023,34.6716080021,substation,0,,,,
316216918,136.628150137,36.5794154118,substation,154000,,北金沢変電所,北陸電力,
256682330,136.60740886,36.4904776944,substation,154000,,南金沢変電所,北陸電力,
316250984,136.478758085,36.3813184753,substation,154000,,小松変電所,北陸電力,
191576072,139.756076487,36.2445609145,substation,0,,,,
194528833,139.70499945,36.1315773573,substation,154000,,栗橋変電所 (Kurihashi Hendensho),東京電力,
134023501,139.735659091,35.9105570839,substation,0,,,東京電力,
133137636,139.69073917,36.0260582229,substation,275000,,北東京変電所 (Kita Tōkyō Hendensho),東京電力,
340875388,139.822552064,36.3054610589,substation,0,,,,
231804783,140.002875265,37.5438430228,generator,0,,猪苗代第一水力発電所,,
191006046,139.940343402,36.623855059,substation,154000,,河内変電所,東京電力,
191552635,139.816620125,36.3258182987,substation,154000,,小山変電所,東京電力,
195138485,139.554783982,36.2803262861,substation,154000,50,佐野変電所 (Sano Hendensho),東京電力,
250626570,139.219886113,36.2920585016,substation,154000,,佐波変電所,東京電力,
315434358,139.212571492,36.2198332558,substation,500000,50,新岡部変電所,東京電力,
205505035,139.118586799,35.2926448954,substation,154000,50,西相模変電所,東京電力,
202490125,138.953681804,35.2270813375,substation,0,,,,
315639820,136.175615642,36.1207851923,substation,154000,,,北陸電力,
315614776,136.29387034,36.1415428668,substation,275000,,,北陸電力,
188498180,136.284294424,36.0903609294,substation,154000,,松岡,北陸電力,
191072902,140.294775398,35.5218724572,substation,154000;66000,50,外房変電所 (Sotobō Hendensho),東京電力,
172068313,140.151150327,35.6213959504,substation,154000,,東千葉変電所 (Higashi Chiba Hendensho),東京電力,
104024082,141.219702264,38.4735603755,substation,0,,東北電力 変電所,東北電力,
316796028,141.237784263,38.4810876657,substation,275000,50,,,
187748270,136.892123588,35.1604142386,substation,154000,60,水主町変電所,中部電力,
243138764,136.839207488,35.1611614064,substation,154000,60,岩塚変電所,中部電力,
110847002,135.575398885,34.8811575476,substation,275000;154000,,北大阪変電所 (Kita Osaka Hendensho),,
237064000,135.498000934,34.7158503605,substation,154000,,豊崎変電所,,
288407886,135.515710629,34.8070899884,substation,0,,,,
48808480,139.526792262,35.399708655,substation,154000,50,東京電力戸塚変電所,東京電力,
197899162,139.622673652,35.3757452891,substation,154000,50,東京電力 富岡変電所,東京電力,
128364781,139.500490679,35.431247513,substation,275000,,東京電力 京浜変電所,,
161768996,136.736198187,35.4070525611,substation,154000,,加納変電所 (Kanō Hendensho),中部電力,
161958478,136.611271769,35.3846469808,substation,154000,60,大垣変電所 (Ogaki Hendensho),中部電力,
161948515,136.645241319,35.4269599404,substation,275000,60,西濃変電所 (Seinō Hendensho),中部電力株式会社,
161767717,136.78817098,35.3799955507,substation,154000,60,,,
150035494,138.799911476,35.5903778272,substation,500000,,,,
202426838,138.573734421,35.636976778,substation,154000,,山梨変電所 (Yamanashi Hendensho),東京電力,
191965105,135.510003151,34.5760087971,substation,0,,,,
169359724,135.647951679,34.5973107182,substation,500000,60,信貴変電所 (Shingi Hendensho),関西電力,
161639374,135.796337953,34.6225871817,substation,154000,,新奈良変電所 (Shin Nara Hendensho),,
192508457,136.694410981,35.4359630292,substation,154000,60,北方開閉所 (Kitakata Kaiheisho),関西電力,
170366035,136.962590414,35.6356870217,substation,500000,60,,中部電力株式会社,
159523372,139.481699036,35.8408335187,substation,0,,武蔵赤坂開閉所,東京電力,
152991099,139.353615132,35.9154835406,substation,0,50,中東京変電所,東京電力,
136298957,139.550312411,35.7951738929,substation,0,,新座変電所,東京電力,
325971036,139.47052957,37.7040085449,substation,154000,50,,,
319313779,139.531199265,38.093775551,substation,154000,50,,,
316466739,136.192315332,35.9296961375,substation,0,,,,
416863796,137.37517404,34.7112689892,substation,0,,植田変電所,中部電力,
170247308,137.470391535,34.8442326468,substation,275000,60,三河変電所,中部電力株式会社,
308278859,140.820666494,38.1125817757,substation,154000,50,,東北電力,
104055891,140.896693589,38.2157451872,substation,154000,50,南仙台変電所,東北電力,
316838101,140.676155358,38.0040409197,substation,154000,50,東白石変電所,東北電力,
192599334,136.636698407,35.2753796537,substation,0,,,,
209629965,136.594257647,34.9446864169,substation,154000,60,北勢変電所 (Hokusei Hendensho),中部電力株式会社,
241923317,136.538635137,34.5457833969,substation,275000,,南勢変電所 (Nansei Hendensho),中部電力株式会社,
103748362,140.951813121,38.2355664862,substation,154000,50,東若林変電所,東北電力,
147612246,139.522710884,35.4639855901,substation,0,,東京電力 さちが丘変電所,,
328372910,139.551776687,35.4850898485,substation,0,,東京電力白根変電所,東京電力株式会社,
126977812,139.65111626,35.5288749824,substation,154000;66000,50,東京電力 旭変電所,東京電力,
119180604,139.602890242,35.5358424171,substation,154000,50,港北変電所,東京電力,
170366039,137.700826237,34.8054111152,substation,0,,中部電力遠江変電所,中部電力株式会社,
192220071,137.811721135,34.9327261743,generator,0,,秋葉第一発電所,電源開発,
170197081,139.09778495,37.918646744,substation,154000,,,,
170016166,139.126193713,37.9088438286,substation,154000,,大形変電所,,
318193036,141.19374495,41.3058655444,substation,154000,50,下北変電所,,
318193035,141.299476676,40.9509071318,substation,154000,50,,,
170197083,139.092278203,37.9202051542,substation,154000,,中新潟変電所,東北電力,
170016137,139.020585876,37.8975175688,substation,154000;66000,,,,
125629855,139.141246722,37.8073830165,substation,154000,,新津変電所,東北電力,
134687324,139.645378562,35.5357268891,substation,0,,綱島周波数変換変電所,JR東海,
111673441,139.647034293,35.5362949513,substation,0,,綱島変電所,,
81844460,139.687555985,35.5292307808,substation,154000,50,川崎変電所,東京電力,
262597734,136.738483733,35.1305892815,substation,0,,海部開閉所,中部電力株式会社,
170793703,136.69718691,35.1379654782,substation,275000,,西尾張,中部電力株式会社,
169523646,136.810384157,35.0999626969,substation,154000,60,名南変電所,中部電力,
154140776,138.691968497,35.1758768411,substation,154000,,東京電力駿河変電所,,
191725218,138.879711506,35.1383986825,substation,0,,,,
191462506,135.588869956,34.7888392895,substation,0,,,,
170693194,135.657293961,34.8606345176,substation,275000,60,淀川,関西電力,
210090091,137.016948801,35.019355471,substation,154000;77000,,北刈谷変電所 (Kita Kariya Hendensho),中部電力株式会社,
209980106,137.122724973,34.9674695448,substation,154000,60,岡崎変電所 (Okazaki Hendensho),中部電力,
87682157,139.465845034,35.8913277128,substation,275000,50,南川越変電所 (Minamikawagoe Hendensho),電源開発株式会社,
128581912,139.436354578,35.9622140687,substation,500000;275000;66000,50,新坂戸変電所,東京電力,
133355430,139.736353174,35.8220375516,substation,154000,50,鳩ヶ谷変電所 (Hatogaya Hendensho),東京電力,
133645287,139.370135665,35.8219149369,substation,154000,,豊岡変電所,,
159548297,139.498294663,35.8578326782,substation,0,,亀久保変電所,東京電力,
105291887,140.445550067,36.479299876,substation,275000,50,那珂変電所 (Naka Hendensho),東京電力,
106303782,140.411085877,36.4067006118,substation,154000,,西水戸変電所,東京電力,
155411568,139.718852527,35.9237366706,substation,0,,,,
191048989,139.494660528,36.081126552,substation,154000,,埼玉変電所 (Saitama Hendensho),東京電力,
191799657,135.751870057,34.9280743764,substation,154000,60,横大路変電所 (Yokooji Hendensho),関西電力,
161870227,135.89757306,34.8656304299,substation,500000,,南京都変電所 (Minami Kyōto Hendensho),,
288316775,135.800199652,35.0059732271,substation,154000,,,,
315608201,136.839374429,36.9957294525,substation,0,,,北陸電力,
315608216,136.904794795,36.9662584931,substation,154000,,,北陸電力,
104530060,139.917518491,36.6554166329,substation,0,50,新栃木変電所,TEPCO,
179417725,136.952361832,35.055345256,substation,154000,,大高変電所,中部電力株式会社,
179417733,136.99094492,35.0408502975,substation,275000,60,,,
188317052,136.900635399,35.0831318749,substation,154000,60,昭和町変電所,中部電力,
180359734,136.87808386,35.0665058935,generator,0,,新名古屋火力発電所,,
324181121,137.315408323,36.7105927733,substation,154000,,舟橋変電所 (Funahashi Hendensho),,
320536910,137.426862027,36.8327491267,substation,0,,,,
126635652,139.034137784,36.3530332394,substation,154000,,群馬変電所,,
209269384,137.23149748,35.3799734366,substation,154000,,瑞浪変電所 (Mizunami Hendensho),中部電力,
83096973,136.871790828,35.2615756528,substation,154000,60,岩倉変電所 (Iwakura Hendensho),中部電力,
315461262,140.025755033,35.3414223793,substation,154000;66000,50,内房変電所 (Uchibō Hendensho),東京電力,
315461256,139.854296555,35.3556192465,substation,0,,,,
190166671,139.883158411,35.7152165755,substation,0,,,,
147297586,139.869497851,35.687465752,substation,0,,小松川変電所,東京電力,
146367306,139.85600704,35.7115588298,substation,0,,松島変電所,東京電力,
191072912,139.935593608,35.8569459881,substation,154000,,東葛変電所 (Tōkatsu Hendensho),東京電力,
151706977,139.910405234,35.9311282264,substation,0,,新野田変電所 (Shin Noda Hendensho),東京電力,
153020056,137.00512921,35.1876759934,substation,154000,,中電猪高変電所,中部電力,
169121278,136.994219141,35.264634743,substation,275000,60,電源名古屋,中部電力株式会社,
211926647,136.942893171,35.2147770721,substation,154000,60,名北変電所,中部電力,
198874138,138.841867742,37.3747087376,substation,0,,,,
318302348,138.373234273,37.1881678113,substation,275000,50,東上越変電所,,
272381607,135.492171796,34.7433571541,substation,154000,,西三国変電所,,
191462379,135.554715895,34.760053882,substation,0,,,,
288222748,137.948871528,35.7057197141,substation,154000,60,駒ヶ根変電所,,
211037499,137.974213316,35.922311459,substation,154000,60,,,
211148421,137.846341745,35.2760134719,substation,154000,,平岡変電所,,
217128112,136.828071879,35.0339200929,sub_station,0,,,,
177598084,136.831123227,35.0323266994,generator,0,,西名古屋火力発電所,,
205345027,136.784027227,35.1609552629,substation,154000,60,七宝変電所,,
139734200,139.443373571,35.6516922869,substation,154000;66000,,聖蹟桜ヶ丘変電所,,
120341217,139.478690414,35.6315998664,substation,0,,長峰変電所,東京電力,
85933450,139.395562228,35.6918081233,substation,0,,郷地変電所,,
90625056,139.62576992,35.580739029,substation,154000;66000,50,南武変電所,東京電力,
38073309,139.588925373,35.67364181,substation,154000,50,東京電力 千歳変電所,東京電力,
302164677,140.085914931,39.812682444,substation,0,,秋田変電所,東北電力,
317376283,140.594527453,40.2213516282,substation,154000,50,大館変電所 (Ōdate Hendensho),東北電力,
133644487,139.23944561,35.8519931617,sub_station,0,,,,
73851272,139.046000662,35.9609164276,substation,0,,,,
191539408,135.675126018,34.9697323087,substation,0,,,,
169031921,135.6190043,34.9698026851,substation,500000,60,西京都変電所 (Nishi Kyōto Hendensho),関西電力,
191539410,135.657353819,34.9687568451,substation,0,,,,
316581636,140.712749912,40.7775245996,substation,154000,50,青森変電所,東北電力,
316581637,140.710602403,40.7747236304,substation,275000,50,青森変電所,東北電力,
169975522,138.607865856,37.3898370582,substation,154000,,,,
169993955,139.246033613,37.727652503,substation,275000,,新潟変電所,東北電力,
170016148,139.284631532,37.9804314442,substation,275000,,北新潟変電所,東北電力,
293478778,138.966117691,37.6023860277,substation,154000,,三条変電所,,
325971086,139.472043183,37.6825828173,substation,154000,50,,,
191476518,135.471030021,34.621550373,substation,154000,60,敷津変電所,関西電力,
288437212,135.434828485,34.6388500029,substation,154000,,,,
192617450,136.793447037,35.2239046324,substation,154000,,稲沢市変電所 (Inazawa Hendensho),中部電力,
82104580,139.711414801,35.5001274022,substation,154000,,南川崎変電所,東京電力,
170000627,139.214369341,37.9543553907,substation,0,,,,
315392819,139.215951308,37.9773344235,substation,154000,,,,
291411215,140.419310489,37.7492387062,substation,0,,,,
210765356,139.674041589,35.7941348757,substation,0,,,,
341224663,138.929318161,35.5802718534,substation,0,,,,
110297009,139.342149668,35.5913104805,substation,154000,,橋本変電所 (Hashimoto Hendensho),東京電力,
341222391,138.913509036,35.5590161144,substation,0,,,,
201643422,138.97359138,35.0091746593,substation,154000,50,田方変電所 (Tagata Hendensho),東京電力,
282865965,135.454709229,34.7157685586,substation,154000,60,関西電力御幣島変電所,関西電力,
110682955,135.374892106,34.7858116519,substation,275000;154000;77000,,伊丹変電所 (Itami Hendensho),,
325971035,139.632141352,37.6337429749,substation,154000,50,,,
243513839,139.923093286,37.5773353848,substation,154000,50,,,
249794281,139.68589327,37.607172644,substation,154000,50,,,
190748953,136.802125267,35.4914168051,substation,154000,60,北岐阜変電所 (Kita Gifu Hendensho),,
209518490,137.20469003,35.7338861715,substation,154000,60,,,
161767713,136.820780408,35.327633915,substation,154000,,北一宮変電所 (Kita Ichinomiya Hendensho),中部電力,
106303783,140.254121244,36.2192711287,substation,0,,,,
209324329,138.495694263,35.6442820796,substation,0,,,,
234041222,139.501260518,37.4406310782,substation,275000,50,本名変電所,東北電力,
234041220,139.462947916,37.3973558968,generator,0,,東北電力伊南川発電所,,
133374789,139.818906203,35.7795106495,substation,154000,50,花畑変電所 (Hanahata Hendensho),東京電力,
144077272,139.87037167,35.8698657195,substation,0,,,,
111363724,135.481436584,34.755081752,substation,154000;77000,,,,
177422735,136.858757327,35.100312776,substation,154000,60,寛政変電所,中部電力,
195071837,139.836556758,35.8280634957,substation,154000,,東八潮変電所 (Higashi Yashio Hendensho),東京電力,
330124781,140.38343014,37.4484829802,substation,0,,,,
106101635,139.562893612,35.7588206564,substation,154000,50,武蔵野変電所 (Musashino Hendensho),東京電力,
194792480,139.765751006,35.7469666917,substation,154000,,田端変電所 (Tabata Hendensho),東京電力,
44778925,139.530808324,35.7028139256,substation,154000,50,武蔵境交流変電所,東日本旅客鉄道,
130703866,139.680642555,35.5270408857,substation,0,,新鶴見交流変電所,JR東日本,
47110637,139.457091945,35.6048554384,substation,275000,,西東京変電所,電源開発,
288437170,135.48135063,34.6807281948,substation,154000,60,本田変電所 (Honden Substation),関西電力,
90286518,139.384643328,35.7092085547,substation,0,,昭島変電所,,
319175832,138.817373444,36.9911410443,substation,154000,50,南魚沼変電所,,
319153602,138.735678166,37.149306232,substation,154000,50,魚沼変電所,,
223194638,134.000334298,34.2131879512,substation,187000,,,,
87491654,134.002723616,34.2257603195,substation,187000,,香川変電所,四国電力,
307645906,133.99966166,34.2066267495,substation,187000,,,,
171063439,132.804050111,33.8345392149,substation,0,,,,
173327088,133.222677726,33.9129847066,substation,187000,,西条変電所,四国電力,
158880530,141.418465506,43.0222434319,substation,187000,50,南札幌変電所,北海道電力,
179882298,141.60195435,42.9314770599,substation,0,50,,北海道電力,
176450618,141.537392129,43.1203816295,substation,187000,50,北海道電力　総合研究所,北海道電力,
254271516,140.607506373,41.8882677724,substation,187000,50,北海道電力(株) 大野変電所,北海道電力,
222851764,140.654320272,41.9321292974,substation,187000,,,,
209817373,140.994440528,42.4016781854,substation,187000,50,西室蘭開閉所,北海道電力,
254548831,141.033996738,42.7430931588,substation,187000,50,,北海道電力,
255511621,142.903603355,43.1623984554,substation,0,50,,北海道電力,
256894928,141.783272504,42.7143270969,substation,0,50,,北海道電力,
183582761,144.155060786,43.0776843082,substation,187000,50,,北海道電力,
171940160,141.79896688,42.8817826734,substation,0,50,,北海道電力,
179863075,141.283428704,43.1213804458,substation,187000,50,西札幌変電所,北海道電力,
168524732,141.222587588,43.0571847938,substation,0,50,,北海道電力,
179863079,141.45121792,43.2342661551,substation,275000,50,,北海道電力,
104736425,142.322803771,43.8061172032,substation,187000,50,西旭川変電所,北海道電力,
182551911,141.403211803,43.0926036336,substation,187000,50,苗穂変電所 (Naebo Hendensho),北海道電力,
87538349,133.954047777,34.1649108559,substation,500000,,讃岐変電所,,
170877533,133.761776068,34.1852810844,substation,187000,,,,
87491658,133.986401481,34.2899863134,substation,187000;66000,,高松変電所,四国電力,
262597732,140.66383822,41.9319693327,substation,187000,,,,
172907196,132.928213308,33.7920154776,substation,187000,,川内発電所,,
456491989,132.310134486,33.4897848839,plant,0,,伊方原子力発電所,四国電力株式会社,
186044120,144.44662086,43.0106970847,substation,187000,50,東釧路変電所 (Higashi-Kushiro Hendensho),北海道電力,
200232946,141.843012933,43.4203709683,substation,187000,50,,北海道電力,
171940156,141.556779167,42.6348570213,substation,187000,50,苫小牧 (Tomakomai),北海道電力,
201293312,131.015519871,33.6081392272,substation,500000;220000,60,,九州電力,
216809817,131.118677674,33.6265131461,plant,0,,豊前火力発電所,,
259056356,131.534582935,33.4128341158,substation,0,,,九州電力,
90806466,131.511893802,33.1882006533,substation,220000;66000,60,,九州電力,
405626236,130.90258844,32.9093747183,substation,220000,60,熊本変電所,九州電力,
203776442,130.470448623,33.0606405338,substation,0,,,,
216502300,130.799205665,32.6143441047,substation,0,,九州電力 中九州変電所,九州電力株式会社,
373882198,130.938148214,31.3922299875,substation,0,,,,
218035208,130.945763511,31.7849449388,substation,220000,60,高野変電所,九州電力,
189776902,130.970977636,33.8957737572,substation,220000;66000,60,九州電力 門司変電所,九州電力,
296958054,130.969227981,33.9106120149,substation,220000;25000,60,JR西日本 新門司変電所,,
405705606,131.392320314,31.9017238038,substation,220000;66000,60,,,
239024744,130.85014442,33.8276458344,substation,220000;110000;66000,,九州電力 西谷変電所,,
187988970,130.804270332,33.8100018519,substation,500000;220000,,,,
317951887,133.106378906,35.4093760894,substation,500000,60,,,
317980483,132.735924245,34.8194723033,substation,220000,60,,,
215451416,130.655601697,31.957714777,substation,500000;220000,60,九州電力南九州変電所,九州電力,
406052986,130.533183028,31.6312549936,substation,220000,60,,,
242159178,133.483742872,34.6609254546,substation,220000,,,,
317416609,132.874387841,34.2570538074,substation,220000,60,,,
170974371,132.709281856,34.4890503255,substation,500000,60,新広島変電所 (Shin Hiroshima Hendensho),中国電力株式会社,
216953915,131.385502607,32.2509218581,plant,0,,,,
373870139,131.58809322,32.4299527231,substation,0,,,,
231759891,131.323666883,32.1948702726,generator,0,,一ツ瀬水力発電所,,
173152424,130.388488849,33.5325824634,substation,220000;66000,,九州電力 西福岡変電所,,
172601929,130.364602358,33.4702298769,substation,500000;220000,,,,
238089516,130.485348063,33.3848338805,substation,220000,60,九州新幹線 新鳥栖変電所,,
173793392,130.491187183,33.3810090222,substation,0,,鳥栖変電所,,
318438125,131.270371692,34.0602097481,substation,220000,60,,,
242253500,131.826159152,34.2002428638,substation,500000,,東山口変電所 (Higashi Yamaguchi Hendensho),中国電力株式会社,
172143432,130.583356935,33.479270163,substation,0,,,,
184180157,130.460882815,33.6220276572,substation,220000;66000,,東福岡変電所,,
405806514,131.120367296,33.623463458,substation,220000;66000,60,,,
189777972,130.913545248,33.8420700157,substation,0,,,,
296789326,130.916277999,33.8450848353,substation,0,,,,
201289289,129.954591857,33.4626593325,substation,220000,50,九州電力 唐津変電所,九州電力,
185029969,129.928973646,33.3503975162,substation,500000;220000,,,,
174915836,130.448610229,33.2113795291,substation,220000;66000,,九州電力 木佐木変電所,,
216949339,131.638967105,33.2292724587,substation,220000;110000;66000,60,,,
186510275,129.834754429,33.5157006083,substation,500000,60,3/4号 開閉所,,
172644773,129.835559718,33.5163849301,plant,0,,玄海原子力発電所,九州電力株式会社,
241828221,133.388286343,34.8036444385,substation,500000,60,新岡山変電所 (Shin Okayama Hendensho),中国電力株式会社,
220698807,130.011247561,33.1807963237,substation,0,60,,,
219579624,129.646376264,33.1965511778,substation,220000,60,,,
241875111,129.84169314,33.1377836752,substation,220000,60,,,
185504478,130.259685823,33.3349318191,substation,220000;66000,60,,,
204258596,131.093471529,34.1632351437,substation,500000,60,,,
216781917,131.707864582,33.2678241285,generator,0,,新大分火力発電所,,
172144358,130.623930306,33.4917652256,substation,500000;220000,60,,九州電力,
172144359,130.622456594,33.4904357752,substation,500000;220000,60,,,
297939963,130.847466003,33.861283955,substation,220000,,,,
296788490,130.762543584,33.834875129,substation,220000;66000,,九州電力 上津役変電所,,
238813045,130.365217126,32.066906356,substation,220000,,,,
238813048,130.368498199,32.0675972258,substation,220000,,出水変電所,,
365487155,130.200460677,31.8587004485,generator,0,60,川内発電所,九州電力株式会社,
237475191,130.464748823,31.5363544947,substation,220000,,九州電力 新鹿児島変電所,,
215429864,130.191854855,31.833747818,plant,0,,川内原子力発電所,,
169121281,137.117229574,35.143790905,substation,0,,北豊田変電所 (Kita Toyota Hendensho),中部電力株式会社,
169121284,137.136038034,35.2021377775,substation,275000,,,中部電力株式会社,
169122898,137.262292468,35.106123957,substation,500000,60,東部変電所,中部電力株式会社,
116828675,139.367355665,35.5342879241,substation,275000,,北相模変電所 (Kita Sagami Hendensho),東京電力,
150065045,138.963077844,35.3723990363,substation,500000,50,新富士変電所,,
134376414,137.805734412,35.0910289116,generator,0,,佐久間発電所,,
170850727,137.297997493,35.2103919827,substation,500000,60,愛知変電所,中部電力株式会社,
170503689,138.063960208,34.8110215714,substation,0,,駿遠変電所,中部電力,
170436908,138.361261039,35.0636828041,substation,0,,,,
210090094,138.063070765,34.8083637617,substation,500000,60,駿遠変電所,中部電力,
158064651,139.288231005,37.3139707373,substation,275000,,田子倉発電所,,
232998815,139.24406979,37.1602996015,substation,275000,50,,,
319098734,138.68308952,37.0535335596,generator,0,,信濃川水力発電所,東京電力株式会社,
241956440,136.37007314,34.4458252744,substation,275000,60,伊勢開閉所,中部電力株式会社,
170537514,136.514458454,35.1931597057,substation,500000,60,,中部電力株式会社,
214992492,136.206515598,34.0660766745,generator,0,,,,
242532736,136.405902438,34.7161632674,substation,275000,60,,,
162844704,139.409398899,35.4179495145,substation,275000,,中相模変電所,東京電力,
210765350,140.071778134,35.6688795896,substation,0,,花見川変電所 (Hanamigawa Hendensho),,
211241774,140.126584796,35.5648568292,substation,0,,,,
319300956,139.04206696,37.4835683033,substation,275000,50,中越変電所,東北電力,
318218831,139.411945042,37.8894975852,substation,275000,50,,,
170793702,136.615036927,35.0836844493,substation,275000,60,西名古屋,中部電力株式会社,
340647468,140.650984589,35.9254868298,substation,0,,,,
340648895,140.656495279,35.8966825085,substation,0,,,,
168852840,140.628263208,35.9326538808,substation,0,,,TEPCO,
192745005,137.162631967,35.4699548474,substation,275000,,丸山変電所 (Maruyama Hendensho),関西電力,
161946848,136.869764203,35.5044489485,substation,275000,,関開閉所 (Seki),,
168903220,139.344751382,36.2054089204,substation,275000,,,TEPCO,
315434352,139.229957231,36.208358285,substation,0,,,,
108199478,135.471411846,34.4678916703,substation,275000,60,南大阪変電所 (Minamiōsaka Hendensho),関西電力,
158522649,135.641785486,34.7047388695,substation,275000,,東大阪変電所,関西電力,
109834508,135.586835804,34.4026686534,substation,275000,60,金剛開閉所 (Kongō Kaiheisho),関西電力,
315614783,136.286912126,36.2064847148,substation,275000,,,北陸電力,
316566585,141.178509619,40.7105608465,substation,275000,50,,,
174636874,141.176228303,39.9051170032,substation,275000,,岩手変電所,,
316566588,141.197860175,39.075013594,substation,275000,50,,東北電力,
106076988,140.848833721,38.6049332103,substation,500000,,宮城変電所,,
316581632,141.199091259,39.0849427663,substation,275000,50,,東北電力,
256682313,136.716890633,36.5005657124,substation,0,,,,
103818820,140.907654218,38.3189655508,substation,275000,50,仙台変電所,東北電力,
250430935,140.116619179,37.8584085622,substation,275000,,米沢変電所 (Yonezawa Hendensho),,
170247359,137.277809131,34.9632130186,substation,275000,60,,中部電力株式会社,
170366038,136.938345791,35.4487514062,substation,275000,60,,中部電力株式会社,
161946849,136.937381748,35.5272493208,substation,500000;275000,60,北部変電所,中部電力株式会社,
104375141,140.42647758,37.3055251587,substation,275000,50,須賀川変電所 (Sukagawa Hendensho),東北電力,
107262429,140.422794252,37.6763803082,substation,275000,,福島変電所,,
315757225,136.915873767,36.4959524419,substation,275000,,,,
133641619,139.370611819,35.9289331659,substation,500000,50,新所沢変電所 (Shin Tokorozawa Hendensho),東京電力,
159491797,139.444582503,35.8387467168,substation,275000,50,南狭山変電所 (Minamisayama Hendensho),東京電力,
112170231,138.144678921,34.6216769161,plant,0,,浜岡原子力発電所,,
103827577,140.618422325,36.437887038,generator,0,,常陸那珂火力発電所,,
168839127,140.152774034,36.52267723,substation,0,50,新茂木,TEPCO,
180359744,136.845012138,34.9862473902,generator,0,,知多火力発電所,,
170247312,137.452290369,34.8909358342,substation,500000,,新三河変電所,中部電力株式会社,
170260165,137.50793341,34.7110621041,substation,275000,,中部電力湖西変電所,中部電力株式会社,
170247314,137.18736682,34.8706117235,substation,275000,,額田開閉所,中部電力株式会社,
315461272,140.02781259,35.343533314,substation,500000,50,新木更津変電所,東京電力,
151379730,140.166439473,35.4992134412,substation,500000,50,房総変電所 (Bōsō Hendensho),東京電力,
302164679,140.071933669,40.1621881751,substation,275000,50,能代変電所,東北電力,
316727625,140.427032606,39.1686310111,substation,275000,50,,東北電力,
105298089,140.457999479,35.865409603,substation,500000,50,新佐原変電所,Tepco,
161727149,135.714717825,34.7348669177,substation,500000,,新生駒変電所 (Shin Ikoma Hendensho),,
110682951,135.33985011,34.8762784981,substation,275000,,宝塚開閉所 (Takarazuka Kaiheisho),,
256765107,136.437123852,34.8397352609,sub_station,0,,新鈴鹿変電所,,
242253497,134.667617981,34.8491630632,substation,275000,60,姫路変電所 (Himeji Hendensho),,
185032690,135.086527187,34.7112205392,substation,275000,,西神戸変電所,関西電力,
241822631,134.425802384,34.8615814957,substation,0,,,,
160374974,135.725409731,34.4984671124,substation,275000;77000,60,北葛城変電所 (Kita Katsuragi Hendensho),関西電力,
170260161,137.069097917,34.6545341716,substation,275000,,,,
170260169,137.307278563,34.6584588952,substation,275000,,田原,中部電力株式会社,
145084773,139.316885686,35.7947313282,substation,275000,,青梅変電所,,
159191758,138.003414636,36.3407887956,substation,275000,,北松本変電所,,
211258348,138.319824888,36.4252486677,substation,275000,,東信変電所,中部電力株式会社,
156208858,140.949733827,37.5355013549,substation,500000,,南相馬変電所,,
199544541,138.294302105,36.7410720636,substation,275000,,新北信変電所,中部電力株式会社,
190734269,136.142481947,35.0068497563,substation,275000,,,,
210658603,137.491165337,36.0355046453,plant,0,,高根第一水力発電所,中部電力株式会社,
133135172,139.832375746,36.106816374,substation,500000,50,新古河変電所,TEPCO,
180359727,136.688823308,35.0081763349,generator,0,,川越火力発電所,,
379474501,139.71933712,35.2144534709,plant,0,,,,
250540807,139.223711551,36.5792593672,substation,500000,50,東群馬変電所 (Higashi-Gunma Substation),東京電力,
354115662,139.600730682,37.4567245659,plant,0,,沼沢発電所,,
291678103,135.336326718,34.2114692951,substation,275000,60,紀の川変電所 (Kinokawa Hendensho),,
325868333,134.856586731,34.8019492239,substation,275000,60,,,
145080115,139.358262498,35.6761361807,substation,275000,,,,
308348224,140.250367864,38.7015736393,substation,275000,50,新庄変電所,東北電力,
110682956,135.34602595,34.9843639559,substation,500000,,猪名川変電所,,
320724312,131.922074286,34.7760317446,substation,275000,60,,,
316459359,140.504070373,37.8031699666,substation,275000,50,,,
168727982,140.06949735,35.7814890314,substation,500000,50,新京葉変電所,東京電力,
191382966,135.857894646,34.8953216287,generator,0,,喜撰山水力発電所,関西電力株式会社,
190984572,135.896233148,34.9379738229,substation,275000,60,,,
233174201,139.248442722,37.154872121,generator,0,,,,
153760214,139.440943515,35.7346524664,substation,0,,多摩変電所,東京電力,
315662816,137.932508416,36.1266842904,substation,0,,,,
242706111,134.457194609,34.77409917,plant,0,,,,
110340505,135.24572006,34.7334237259,plant,275000,,新神戸変電所,,
216778426,131.72932394,33.1341649217,substation,500000;220000,60,,九州電力,
104173570,141.021793571,37.3162374776,substation,500000,50,,,
106309481,140.960728832,37.3592220327,substation,500000,50,新福島変電所,東京電力,
168857610,139.832470736,36.7127877656,substation,0,,,TEPCO,
171066843,133.395017685,33.9443013925,substation,500000,,四国電力東予変電所,,
102958903,133.862502293,34.3021730647,substation,500000,,,,
149843487,139.225637072,35.4005657612,substation,500000,50,新秦野変電所 (Shin Hatano Hendensho),東京電力,
145079972,139.223251709,35.714854642,substation,500000,50,新多摩変電所 (Shin Tama Substation),東京電力,
341208725,138.908512864,35.7087333182,substation,0,,,,
66098469,138.801687922,36.6219799612,substation,500000,50,西群馬開閉所,東京電力,
216480979,138.600835088,37.4298756423,plant,0,,柏崎刈羽原子力発電所,,
170589736,136.293365972,35.0951096038,substation,500000,,東近江,関西電力,
170568495,136.451061844,35.2033420025,substation,500000,60,三重開閉所,中部電力株式会社,
116559939,137.708463535,35.0716352168,substation,500000,,,,
142662111,137.729089324,35.1622728817,substation,500000,60,中部電力㈱豊根開閉所,中部電力,
242253537,134.187849128,35.2086671472,substation,0,,開閉所,,
241822621,134.601409497,35.0632765269,substation,500000,,,,
320438391,135.484371471,34.9905040409,substation,500000,60,,,
320444665,135.267393362,35.3500138706,substation,500000,60,,,
315461259,139.836586919,35.3438862656,substation,500000,50,,,
315608215,136.837053704,36.9964455207,substation,500000,,,北陸電力,
169249243,136.825958395,36.4992042313,substation,500000,,南福光変電所,北陸電力,
255763556,136.728236655,37.0614591526,plant,0,,志賀原子力発電所,北陸電力株式会社,
169249247,136.725185669,36.5018518658,substation,500000,,加賀変電所,北陸電力,
132913106,139.903463674,36.1671554702,substation,500000,,新筑波変電所 (Shin Tsukuba Hendensho),TEPCO,
317511904,133.115975175,35.4703853694,substation,500000,60,北松江変電所,,
216956620,131.194133562,31.9219652868,substation,500000,60,,,
253566674,140.805759425,37.3811619421,substation,0,,,,
104391636,140.722592267,37.1419679296,substation,500000,50,新いわき開閉所,東京電力,
169963227,138.832779207,36.5478602041,substation,500000,,新榛名,東京電力,
195615141,138.93696214,36.0307033354,substation,500000,,,,
169963236,138.815152493,36.5622911323,substation,0,,,,
242103532,133.783190687,34.4579065483,substation,500000,,,,
169031922,135.822595063,34.1130545134,substation,0,,,,
169031998,135.902500537,34.448749529,substation,0,,,関西電力,
456491990,135.504096394,35.522675566,plant,0,,高浜原子力発電所,関西電力株式会社,
209429410,137.996991481,35.7100105424,substation,500000,60,南信変電所,中部電力株式会社,
109850439,135.502070059,34.2138854952,substation,500000,,,,
217885658,135.088992484,33.9769483239,substation,500000;0,,由良開閉所,,
216798219,129.682531922,33.3509621321,generator,0,,九州電力 松浦火力発電所,,
170605907,135.10999821,34.9317894984,substation,500000,,北摂変電所,関西電力,
209726348,137.987487528,36.063992334,substation,500000,,信濃変電所,中部電力株式会社,
315662839,137.883856148,36.1375817877,substation,500000,60;50,新信濃変電所,東京電力,
