n_id,longitude,latitude,type,voltage,frequency,name,operator
96704507,16.913620406,45.4480812869,station,None,,TS Međurić,
79818891,16.7187396995,44.9410434817,generator,None,,Р.Т.С. Трафо,
418262298,19.413008404,43.9623126735,substation,None,,,
87206643,19.4103321893,43.9641394948,generator,None,,ХЕ Бајина Башта,ЕЛЕКТРОПРИВРЕДА СРБИЈЕ
184631102,18.6063833026,44.4811888155,substation,None,,TS Tuzla 4,Elektroprenos BiH
280904358,18.6058739229,44.5201149754,plant,None,,TE Tuzla,
