id,lon,lat,name,osm_id,voltage
1,-102.455760622,33.4463816941,None,183255040,None
2,-102.558786252,33.4592531852,None,183383430,None
3,-120.2183078,46.9724507549,Poison Spring Substation,169787394,None
4,-120.21989979,47.0267227794,Wild Horse Substation,61689959,None
5,-120.297632698,46.9569548151,Wind Ridge Substation,61692211,None
6,-120.160583189,46.953257712,None,257053872,None
7,-75.7309257546,39.6334106692,None,71516164,500000;230000
8,-75.6936077382,39.6931158909,None,71583187,None
9,-75.8165506938,38.8923951604,None,68073269,None
10,-102.454786616,33.4462480754,None,183255047,None
11,-102.45408006,33.5204987549,None,183255055,None
12,-102.767649774,33.1249041411,None,183255044,None
13,-82.1811194035,28.25867166,North Zephyhills Substation,166672301,230000;69000
14,-82.0268019872,28.2267227643,Kathleen Substation,85103397,500000
15,-90.0655904478,32.5700597133,None,107036682,None
16,-90.0541267422,32.5856965084,None,186949692,None
17,-90.2146075013,32.3816862984,Lakeover Substation,139788302,500000;230000;115000
18,-90.2195706181,32.3786986494,None,165359715,None
19,-90.216530742,32.3603638169,Rex Brown 230kV Substation,138615952,230000
20,-90.1158010182,32.4073738595,None,186933836,230000
21,-90.0550083849,32.3498064905,None,186933828,230000
22,-90.0981661498,32.4118782279,None,186933833,230000
23,-90.1891407295,32.4539406985,None,186935043,None
24,-77.0365375545,39.1856706956,Brighton Substation,53780495,None
25,-77.2928119543,39.1365089167,Quince Orchard Substation,53342426,None
26,-76.9057152056,39.0901042734,Burtonsville Substation,53812423,None
27,-84.3776761875,30.4681412758,None,172236816,None
28,-84.3981418334,30.453104412,None,172236804,None
29,-84.3460477375,30.4766696935,None,172236819,None
30,-84.4889302532,30.8396297742,None,165831924,None
31,-122.369958858,47.2568131401,Tacoma Substation,35127317,None
32,-122.370448924,47.1826323992,Cowlitz Substation,51600069,None
33,-122.121614449,47.3474962298,Covington Substation,35126436,None
34,-78.8126631794,36.0638401208,None,66789398,None
35,-79.0177804839,36.0457803395,None,66762814,None
36,-78.8170665097,35.9268489689,None,32334805,None
37,-78.7497804973,35.950598564,Durham Substation,32249676,None
38,-82.6362786776,34.0018323246,None,171540506,None
39,-82.5979910669,34.0241846153,None,171540474,None
40,-83.3847647511,33.8605463144,None,171540512,None
41,-83.3166834932,33.8867176151,None,171540526,None
42,-83.1095013467,33.9145839433,None,171540513,None
43,-83.6793163937,33.6741252683,None,171531630,None
44,-83.316916737,32.8825301926,None,170991651,None
45,-83.2979980769,33.1957496104,None,170296008,None
46,-83.5998012502,32.5652855362,Bonaire Substation,160308063,None
47,-83.6262854418,32.8204128974,None,170991653,None
48,-83.5125312029,32.7884608313,None,170991656,None
49,-83.3981001116,34.0534264334,None,171540518,None
50,-83.3977267779,34.0407720204,Plant Dahlberg,256579730,None
51,-83.4005789667,34.4205181006,None,52460256,None
52,-83.2408726887,34.1628702592,None,171571429,None
53,-83.6357061805,34.1650578548,None,171583088,None
54,-83.6646936855,34.1824066608,None,171583087,None
55,-83.5255414927,34.0429356896,None,171583091,None
56,-83.3929822968,33.9711738854,None,171540519,None
57,-83.3461379233,33.9764635221,None,171540528,None
58,-83.3160109715,33.1290734048,None,170991661,None
59,-90.0837060167,32.5113616763,Yandell Road Substation,186949673,None
60,-90.0793695782,32.4677885855,None,186935880,None
61,-89.9995320219,32.6176617289,None,186949693,None
62,-90.1373596655,32.5154350043,Bozeman Road Substation,186949672,None
63,-80.3432589825,25.7683080379,Flagami Substation,48799790,230000;138000
64,-80.3265232239,25.8058163396,Milam Substation,368386475,230000;24000
65,-80.3284603736,25.8970395976,None,376950004,230000
66,-80.706505653,28.0436235798,Malabar Substation,98882909,230000;138000
67,-80.794902616,28.3689734167,Brevard Substation,230720738,230000;138000
68,-101.957950623,33.5857497457,None,183461214,None
69,-101.96646196,33.5917045344,None,183461177,None
70,-75.8172971487,41.2812883699,None,117588022,None
71,-76.1155020575,41.0890034093,None,117384815,None
72,-75.7996808912,41.3765541228,None,117388499,None
73,-82.915585945,34.9543364586,Jocassee Tie Substation,121516041,500000
74,-82.9100487935,34.9580053409,Jocassee Switching Station,30734833,230000
75,-89.9775747985,29.9226961264,None,262766648,None
76,-89.9809618266,29.9227893265,None,33839408,230000
77,-89.9363032435,32.9319392261,None,186949697,None
78,-89.6816028297,33.014560438,McAdams Substation,98939040,None
79,-121.145817672,36.2651878086,None,182108228,None
80,-120.581687494,36.6534262962,Panoche Substation,93288988,None
81,-75.1369370481,39.8590119108,Deptford Substation,95305798,None
82,-75.3880328946,39.8293518072,None,71071448,None
83,-75.1371946825,39.8696954787,Eagle Point Substation,95635618,None
84,-75.0981794084,39.8892444938,Gloucester Substation,95635620,None
85,-82.558495772,28.3666715783,None,379183176,230000
86,-82.5679972088,28.3656302719,Hudson Substation,149838938,230000;115000
87,-81.5185688387,30.1585535354,None,136134730,None
88,-81.5214873324,30.1924624577,None,93155379,None
89,-81.5374022538,30.2663325014,Forest Substation,133792426,230000
90,-81.4868212991,30.2968289895,Center Park Substation,85691274,230000;138000
91,-81.5270564111,30.3017542329,Robinwood Substation,93153974,230000;138000;69000
92,-81.5292140949,30.1466660247,Greenland Substation,93153977,230000;138000
93,-81.5170822004,30.1600219619,None,166846883,None
94,-82.1554961007,34.9527585355,Tiger Tie Substation,121520203,None
95,-81.7495952278,34.8958078152,Pacolet Tie Substation,120927150,None
96,-81.8964111256,35.00640254,Peach Valley Tie Substation,121522792,None
97,-82.4376013672,34.8902690599,North Greenville Tie Substation,58666669,230000
98,-82.5153159101,34.9834730509,Shiloh Switching Station,121516573,230000
99,-80.2065753423,25.8596314739,Miami Shores Substation,146841676,230000;138000
100,-80.3111508055,25.8310338658,Dade Substation,140224304,230000;138000
101,-90.7211619162,29.9814132983,Vacherie Substation,186723000,230000
102,-90.8936368731,30.0009317947,None,186732579,230000
103,-90.4738090645,29.9857512393,Waterford 230kV Substation,139514782,230000
104,-90.8170302598,29.819423533,Thibodaux Substation,186810918,230000
105,-90.454811981,29.9882387753,None,186723001,None
106,-90.4583458893,29.9884608493,None,165477520,230000
107,-90.7939284836,30.0558255006,None,186706082,230000
108,-90.5932731317,30.0601028302,None,186706069,230000
109,-90.8286142357,30.0587891513,None,186691344,None
110,-80.6184864222,35.450881291,None,162152537,None
111,-80.9676938612,35.6017134975,Marshall Steam Station,421376694,None
112,-81.011112212,35.1901953385,Allen Substation,120676567,None
113,-80.3755492628,35.7096972359,None,159455390,None
114,-105.202872764,39.7341440083,Lookout Substation,64225295,230000
115,-105.071422746,39.4971618228,Waterton Substation,42377520,None
116,-105.158044532,39.6325385842,Soda Lakes Substation,105692127,None
117,-105.203534409,40.0174403294,Valmont Substation,58672411,230000
118,-105.122677923,39.7890661924,Ridge Substation,64341967,230000
119,-105.159088502,39.7388517769,None,66112624,None
120,-82.5310408649,27.5515660372,None,379542202,230000
121,-82.5519226643,27.5572197367,Rubonia Substation,379542204,230000;24000
122,-82.4982725833,27.4906940487,Castle Substation,32741955,230000;24000
123,-122.703945444,47.5318115823,Kitsap Substation,41771102,None
124,-123.12354991,47.2278021975,Shelton Substation,41770978,None
125,-76.7937870904,42.1023036873,Hillside Substation,175833186,None
126,-77.5299395498,42.4395185766,Canandaigua Substation,175833231,None
127,-76.7712850411,42.1083699061,Watercure Substation,175784546,None
128,-76.4310481334,41.7594014062,None,144818449,None
129,-90.4757397507,29.9984959939,None,186723003,230000
130,-74.6992322755,40.7941883491,Chester Substation,95789156,None
131,-74.3782624607,40.8194166262,East Hanover Substation,94808794,None
132,-74.9206090415,40.6816004473,Glen Gardner Substation,95795282,None
133,-114.141403556,34.2909680796,None,77275243,None
134,-114.142135504,34.2937982492,None,77275227,None
135,-112.592471463,33.4367943072,Buckeye Substation,105031252,None
136,-114.211387421,34.4171194589,None,75776205,None
137,-112.500284849,33.4122281237,Liberty Substation,105031194,None
138,-112.424164213,33.69407785,None,173301870,None
139,-112.625371623,33.6733031195,None,301426840,None
140,-105.044526356,40.5244745511,Harmony Substation,128522941,230000
141,-105.041211092,40.5645583287,Timberline Substation,125670759,230000
142,-105.034614806,40.2343790358,Longs Peak Substation,134153230,230000;115000
143,-120.536564217,37.9446769158,None,182788208,None
144,-120.802414525,37.7417291569,None,79248632,None
145,-82.3888212738,27.0979223813,None,380371058,230000
146,-82.3733880433,27.1356344429,Laurelwood Substation,377712011,230000;138000;13000
147,-82.3512052194,27.0526569228,None,165918674,230000
148,-121.45424714,43.6610960749,La Pine Substation,167542899,None
149,-121.233390058,44.0572231307,None,88982424,None
150,-121.841621001,42.5861950631,None,181544636,None
151,-78.7423183636,41.4499033882,Forest Substation,176081598,None
152,-78.6594403966,41.8809297585,Lewis Run Substation,176081601,None
153,-79.0166448722,41.8345765092,Glade Substation,176081599,None
154,-78.5986977322,41.3650765684,Elko Substation,181047003,None
155,-78.8474282666,35.8479627745,None,167141499,None
156,-78.8474377838,35.846973156,None,167141502,None
157,-78.8116922821,35.9095249118,None,167014165,None
158,-115.344630424,36.1826528138,None,182648957,None
159,-115.282595853,36.086171305,None,182649012,None
160,-115.330005041,36.334470006,Northwest Substation,166551123,None
161,-78.8416434416,35.8194967072,None,167147544,None
162,-78.8057835046,35.7992459724,None,167147549,None
163,-78.89404544,35.8200162272,None,167147545,None
164,-78.8278263711,35.0988950111,Fayetteville East Substation,167411842,None
165,-78.982546682,35.1569959771,None,162810632,None
166,-78.9166563268,35.0210244087,Fayetteville Substation,167930675,None
167,-78.6583930011,35.3370043117,Erwin Substation,161731215,None
168,-78.9743735712,34.5895057901,Weatherspoon Plant Station,159455338,None
169,-118.297911608,34.6860443635,Antelope Substation,88776835,None
170,-118.119285055,34.4862732167,Vincent Substation,30567721,None
171,-118.583056515,34.4392979064,Pardee Substation,91834998,220000
172,-111.748298781,33.33007183,Santan Substation,106086540,None
173,-111.75030187,33.3323142395,None,328304736,None
174,-106.55188757,41.8572311104,Miners Substation,170937026,None
175,-106.190770851,41.6526916325,Foote Creek Substation,170937025,None
176,-106.394593987,41.9600518885,Freezeout Substation,101830555,None
177,-77.7093797928,42.5567542001,Meyer Substation,140540233,None
178,-111.668078358,33.4254067117,Thunderstone Substation,106086544,None
179,-111.525544449,33.0081859469,Coolidge Substation,187993663,None
180,-111.799888918,33.4248659864,Rogers Substation,45083494,None
181,-114.277706307,34.1613648301,None,77275282,None
182,-114.684634627,33.6162076875,None,166649172,None
183,-114.680379933,33.611352618,None,166649166,230000
184,-111.674878517,33.4268072726,Thunderstone Substation,106086552,None
185,-111.509191618,33.4527130755,Goldfield Substation,105903716,None
186,-81.300247397,29.6563492266,Pellicer Substation,142172313,230000;115000;13000
187,-81.2681901512,29.4975533425,Regis Substation,147555348,230000;24000
188,-81.8888321065,27.9326896097,None,381558938,230000
189,-81.9005173311,27.8971910452,Crews Lake Substation,381687268,230000;69000
190,-81.9062005809,28.0119362665,Eaton Park Substation,177529367,230000;69000
191,-81.806145617,28.0526415618,Recker Switching Station,381760442,230000
192,-81.8349148623,27.9085550868,North Bartow Substation,318169022,230000;69000
193,-82.4295681221,28.1146502827,Chapman Substation,84893853,230000;69000
194,-82.3417523058,27.9433265416,State Route 60 Substation,105553161,230000
195,-82.4087836764,27.9083767777,None,25899010,230000;138000
196,-82.301241249,27.8555096398,Riverview Substation,376971724,None
197,-82.3590827197,28.0480443034,Davis Substation,375211486,230000
198,-82.5105279951,28.1123276524,Dale Mabry Substation,87244162,230000;69000;13000
199,-122.492291366,47.1878064458,Southwest Substation,200242044,None
200,-122.371929277,47.0919708917,South Tacoma Substation,35301714,None
201,-77.0546293224,38.8416632061,Glebe Substation,107946151,None
202,-77.0485988199,38.8694195615,Pentagon Substation,108017192,None
203,-103.037048574,40.964984617,None,102219944,None
204,-102.738109002,40.2626135216,North Yuma Substation,103749750,None
205,-102.991422507,41.161924711,None,102222589,None
206,-103.033518044,40.962662761,None,102219948,None
207,-103.679424269,40.21652762,None,103625934,230000
208,-102.884830283,40.9794171018,None,350495637,None
209,-115.213355752,36.0084466427,Arden Substation,166551121,None
210,-104.893709561,39.6522160532,Sullivan Substation,95609015,230000
211,-104.902099111,39.6333594278,Tech Center Substation,51372803,230000
212,-104.918377112,39.7066482019,Leetsdale Substation,364774037,230000
213,-104.877025758,39.6825450216,Jewell Substation,364772653,230000
214,-104.827605315,39.6832874099,Tollgate Substation,95440400,230000
215,-86.6544672815,30.4434893036,Wright Substation,206053562,230000;115000;12000
216,-86.5589775611,30.714325247,Shoal River Substation,160199528,230000;115000;12000
217,-80.3240160185,33.8976540545,None,185032893,None
218,-80.6240474362,33.8262347298,Wateree Station,185032974,None
219,-80.4681680766,33.4627903946,None,185032971,None
220,-80.1657597641,34.4187846633,Darlington Plant,159607181,None
221,-80.157579939,34.4016213752,None,159607187,None
222,-79.771279356,34.217083645,None,184554527,None
223,-114.454981657,34.9082015733,None,75776191,None
224,-114.345868281,34.5617658273,None,75776195,None
225,-114.565522518,35.1947617184,None,75355478,None
226,-80.6206869457,33.0641490576,Canadys Station,185032900,None
227,-81.0283174653,33.3653182228,None,185577986,None
228,-112.185354061,33.5360345172,None,187982026,None
229,-112.218587008,33.5569732801,None,216909674,None
230,-112.10604461,33.4735153499,None,155109541,None
231,-90.9660238267,30.1738103897,None,186690215,None
232,-90.8971942023,30.117068615,None,186690218,None
233,-91.0119531609,30.1989331716,None,186845583,230000
234,-90.976433378,30.1830438211,None,186845561,None
235,-90.8648880759,30.1219214401,None,186690216,None
236,-76.5021485816,38.9794146572,None,62152911,None
237,-76.5324458865,38.989523896,None,62152915,None
238,-76.536555497,38.9929569758,None,62152912,None
239,-80.3767318663,26.7095969802,Corbett Substation,48439509,500000;230000
240,-80.1257639484,26.5379016144,Cedar Substation,48445955,230000;138000
241,-81.7822828295,26.6967162096,Fort Myers Plant,194907813,None
242,-81.7688183865,26.6729474696,Orange River Substation,160170760,500000;230000
243,-80.3752366792,26.6936408313,None,363525978,None
244,-80.9764187076,35.3572262766,None,159455376,None
245,-80.8839215964,35.1744682626,Woodlawn Substation,120642556,None
246,-81.0746030698,35.0517239813,Catawba 230kV Switching Station,120865502,None
247,-98.8240029727,48.0864854592,None,128467162,None
248,-97.1133121964,47.9061109598,None,128467164,None
249,-99.9744231646,48.1048964763,Balta Substation,128461870,None
250,-81.213910277,28.4164795445,Magnolia Ranch North Substation,47431899,None
251,-81.2830844166,28.3795551604,Lake Nona Substation,47431918,230000
252,-81.5746511972,28.3030943003,Osceola Substation,47538023,230000
253,-81.5336773162,28.2777737658,Cane Island Power Park,69962263,None
254,-81.4531629112,28.3917201402,Substation No. 26 Merriott South Termination Site,141423921,None
255,-81.3542394943,28.4026246622,Airport Industrial Park Substation,74445880,None
256,-81.16006917,28.4930921409,Stanton Substation,47431902,None
257,-97.1079712958,47.9069565312,None,128467155,None
258,-96.014082344,47.5578322434,Winger Substation,151658418,None
259,-97.0649044334,47.9817067959,None,151601594,None
260,-81.1666118092,28.4880373943,Stanton Energy Center - A,224565841,None
261,-81.1665816167,28.4868357315,Stanton Energy Center - B,224565842,None
262,-81.1685197406,28.483316316,Stanton Energy Center,420142864,None
263,-81.2532882788,28.5044508963,Curry Ford Substation,47467684,None
264,-81.2536977389,28.5410378119,Rio Pinar Substation,70076943,230000;69000
265,-80.7806775794,28.4920178471,None,70080732,None
266,-104.042472417,36.322596867,None,188005265,None
267,-104.800093236,37.6184438258,Walsenburg Substation,162924229,None
268,-85.0376595178,33.4082677852,None,180248801,None
269,-85.0454178734,33.4069095298,None,159784565,None
270,-101.098319238,47.372681505,None,128196834,None
271,-101.156281816,47.3735694377,Underwood Substation,59877248,None
272,-100.007094858,47.7942161674,Harvey Substation,128196835,None
273,-90.92218079,30.0818573898,None,186732583,None
274,-90.9530067965,30.0837414317,None,186732578,None
275,-107.1856105,40.4805870603,None,103563503,230000
276,-107.741739785,39.5202198968,230kV Substation,106028129,230000
277,-107.593586387,40.4802842609,None,104199783,345000
278,-107.591777303,40.4722781243,None,104199776,230000
279,-104.649044731,41.1452600594,None,102222586,None
280,-107.042317203,40.3702660778,None,162802960,None
281,-106.43688566,40.111285435,Gore Pass Substation,162889553,230000
282,-77.4576776438,38.8870212118,None,46366963,None
283,-77.4283959221,38.9197864596,None,64881331,None
284,-77.4318135458,38.9453327993,None,46345399,None
285,-77.4116092123,38.8935939861,None,46366976,None
286,-77.4703901655,38.8750813815,None,45861026,None
287,-77.5681690278,38.8949151819,Loudoun Substation,45836738,500000
288,-91.1392618375,30.4160227601,None,189018154,230000
289,-91.0986254611,30.3912424805,None,189018144,230000
290,-91.1778227491,30.4523602798,Downtown Substation,189018165,230000;13800
291,-91.1858599308,30.4988830339,None,189018155,230000
292,-91.1626779507,30.4946464358,Delmont Substation,189018152,230000;13800
293,-91.1773009177,30.4892027792,Esso Substation,189018161,230000;13800
294,-91.1830018997,30.5191866169,Jaguar Substation,340468656,230000;69000;13800
295,-91.2241671197,30.4595243372,None,189018172,230000
296,-91.2107676261,30.4752608948,None,189018159,230000
297,-80.8068057582,33.5023322031,None,185577981,None
298,-80.8670023607,34.1457905712,None,276404800,None
299,-80.9841179262,33.9432192712,None,185225314,None
300,-81.0502721731,33.9588899072,None,185225320,None
301,-81.0183042557,33.8713112743,None,185227981,None
302,-80.9208171814,33.888685509,None,185227970,None
303,-80.1448326839,33.023700165,None,185236364,None
304,-76.0518211138,41.658122423,North Meshoppen Substation,144817770,None
305,-76.8443626513,41.6155067461,Grover Substation,144818661,None
306,-83.0451887547,32.4162566422,None,164880660,None
307,-83.1614145623,32.2133327495,None,164880657,None
308,-82.9836068763,32.5083479369,None,170685883,None
309,-80.3727722685,25.8722680513,None,230605085,None
310,-80.3718838465,25.8722962067,Pennsuco Substation,230605090,230000;24000
311,-110.045573466,41.8772768841,None,171843873,None
312,-110.033033016,41.6946101381,Monument Substation,167925224,None
313,-80.368356706,25.8544990742,None,171477793,None
314,-80.3536227648,25.8311700497,None,61240408,None
315,-80.3800767972,25.8182772763,None,61240112,230000
316,-80.3570476855,25.9272170301,None,224872869,230000
317,-122.19134519,47.4681376669,Talbot Substation,35125979,None
318,-122.187037809,47.4691101915,Maple Valley Substation,35125980,None
319,-122.179397844,47.8546895167,Bothell Substation,37047581,None
320,-122.186522912,47.8128436658,Sno-King Substation,34073178,None
321,-122.335917932,47.5887268382,Massachusetts Substation,35285169,None
322,-122.33016803,47.5681612807,South Substation,158275313,None
323,-122.131671397,47.378042696,None,164769529,None
324,-122.244039984,47.4031836842,None,35153930,None
325,-115.537308627,32.8021894934,None,90915109,None
326,-115.501127639,33.2422477047,None,166649175,None
327,-112.055838442,33.6558072541,None,65683752,None
328,-111.936871511,33.7031305249,Pinnacle Peak Substation,83118429,None
329,-111.993721732,33.6691214,None,61348439,None
330,-121.024483144,38.2135596485,None,182796585,None
331,-121.123777688,38.3442192445,None,32943234,None
332,-104.969934291,39.5250250623,Marcy Substation,105692126,None
333,-104.905051302,39.4942464473,Daniels Park Substation,93859652,345000
334,-106.325440684,39.1887276929,Malta Substation,133651009,230000
335,-74.2429135554,40.3976205523,Freneau Substation,95805751,None
336,-74.2154571892,40.4192040932,NJT Aberdeen Substation,95917629,None
337,-74.1918724146,40.1137850073,Larrabee Substation,42677847,500000
338,-79.1691208724,34.929917178,None,184721721,None
339,-79.7464104893,34.8430889115,Richmond Substation,159455260,None
340,-80.338222787,35.2190569753,Oakboro Substation,161923393,None
341,-79.9184707245,34.9686755309,None,185805499,None
342,-80.6924875579,35.3129347068,Harrisburg Substation,120780860,None
343,-121.470084317,38.4895282573,Pocket Substation,32719176,None
344,-121.475054021,38.5110509959,None,167884129,None
345,-121.355226365,38.508323058,Hedge Substation,407048112,None
346,-123.801131888,48.8067257825,Sahtlam Substation,155926864,230000
347,-124.671966835,49.3929129401,Dunsmuir Substation,156738152,500000;230000
348,-91.0869593874,30.457601897,Oak Villa Substation,189018169,230000;13800
349,-91.0591388021,30.4357484701,Harelson Substation,189018173,230000;69000;13800
350,-91.1348495917,30.4926045364,Hazel Substation,189018164,230000;13800
351,-91.1129448056,30.2786950977,Willow Glen Substation (500kV),139452764,500000
352,-91.1161353105,30.2767072988,Willow Glen Power Station,77555760,None
353,-77.5490824825,38.9634780471,Brambleton Substation,45842781,None
354,-77.5287622083,39.0758888908,Pleasant View Substation,45842846,None
355,-106.359684136,42.8721863304,None,167144166,None
356,-105.949223727,42.8822427254,Latigo Substation,170291906,None
357,-105.778598759,42.8371714374,Dave Johnston Substation,167015092,230000;115000
358,-106.322650076,43.3897756185,Claim Jumper Substation,170296532,None
359,-108.411165495,43.0182834921,Riverton Substation,170182788,None
360,-76.5426840956,39.2095634067,None,54329703,230000
361,-76.5130495505,39.2298126292,None,62048773,None
362,-76.5306504019,39.1817801486,Herbert A. Wagner Generating Station,62142182,None
363,-76.5372779112,39.1805133088,Brandon Shores Generating Station,62144750,None
364,-82.3455915265,27.60394491,None,224115123,None
365,-82.3957629909,27.7972252303,None,95339474,None
366,-82.4822887556,27.3584234938,Ringling Switchyard,35450590,230000
367,-82.4558497022,27.4761138249,None,32798600,None
368,-82.1296545632,27.5152745413,Keentown Substation,230277867,230000;69000
369,-82.3475564106,27.6081017762,Manatee Power Plant,419594708,None
370,-82.4576765592,27.5805757806,None,224115118,None
371,-81.0866727821,28.1460954476,Holopaw Substation,162603370,230000
372,-81.1782356405,28.2241761837,None,162603371,230000
373,-81.6628828425,27.9028925143,West Lake Wales Substation,375971217,230000
374,-81.9950343777,33.394716468,Marvin Griffin Road Substation,52019564,None
375,-81.9953015877,33.4338288205,South Augusta Substation,52060780,None
376,-82.0084114748,33.3689664624,None,170156510,None
377,-97.0410371776,44.8837377267,Watertown Substation,86958445,None
378,-97.0450019831,44.8825708847,Watertown Substation,86958986,None
379,-81.9953248977,33.3197670118,Goshen Substation,52019569,230000
380,-82.0784146594,33.366823674,None,170166791,None
381,-82.3806569073,33.2338019251,None,170295999,None
382,-82.0565511499,33.3276022715,Peach Orchard Substation,52020722,230000
383,-81.7631970619,33.1456867495,Vogtle Substation,121812102,None
384,-97.0426566213,44.8811542245,None,86958450,None
385,-120.906645958,37.489965398,None,153674102,None
386,-121.230905636,37.5160167993,None,32707508,None
387,-120.917325553,37.6682663302,None,32707934,None
388,-82.4461191345,27.3309414132,Sawgrass Substation,377977577,230000;24000
389,-80.3324964299,43.412247905,Preston TS,67740026,None
390,-80.4761600015,43.3870313644,None,142557684,None
391,-80.5595474439,43.4280567541,None,43280918,None
392,-80.0354972373,43.134784871,Middleport Junction,161009813,None
393,-80.2992055095,43.3770218193,None,274193423,None
394,-84.3996077824,30.1850887341,Crawfordville Substation,160286847,230000;69000
395,-123.41755998,48.1004636597,Port Angeles Substation,50889087,None
396,-122.884799641,47.9752823105,Fairmount Substation,50889088,None
397,-123.106060015,48.0423781291,Happy Valley Substaton,106221018,None
398,-79.6147345515,43.7642245473,None,124486016,None
399,-79.6803720934,43.6954874405,Bramalea TS,43746409,None
400,-79.5776881208,43.6838866741,None,43923733,None
401,-87.5081825246,30.5270891952,None,186081666,230000;115000
402,-87.289622926,30.4678694545,Bellview Substation,133234577,230000;115000;12000
403,-87.5569366046,30.5269854351,None,186081667,230000;115000
404,-87.7641031518,30.5540086733,Silverhill Substation,40431237,230000;115000
405,-123.829319627,45.4579235638,None,181559685,None
406,-123.152791956,45.2808013056,None,181559696,None
407,-94.234178017,30.0771677823,Amelia Bulk Substation,337986967,230000;69000;34500
408,-94.2360713593,30.1595419215,Bevil Substation,337986973,230000
409,-94.1572314024,30.1562489682,Helbig Substation,275734532,230000;69000
410,-105.063542171,27.6580027951,None,338157964,None
411,-103.473883321,25.5954678712,None,373671861,None
412,-105.443258701,28.1665601806,Central Termoeléctrica Francisco Villa,122790281,None
413,-105.808345741,26.8632692098,None,374913915,None
414,-104.494566498,28.4304357423,None,299915648,None
415,-78.6542378142,35.9086560234,None,167272846,None
416,-78.6238599145,35.901161855,None,167272852,None
417,-78.7169532078,35.9185327044,None,167272847,None
418,-122.836293267,45.3717303922,Sherwood Substation,54675166,None
419,-77.6646283229,35.2222869568,Wommack Substation,181301315,None
420,-78.094906871,35.3770656355,Lee Substation,159455262,None
421,-77.1235752108,35.1413286937,New Bern Substation,181212185,None
422,-77.4418464061,35.3625350231,None,159455382,None
423,-90.1373491145,29.9553199378,Southport Substation,29753748,230000
424,-90.2095956167,29.97862998,Snakefarm Substation,139530595,230000
425,-90.1482357382,29.9459498057,Ninemile Point,419562308,None
426,-121.479219529,38.7137780801,Elverta Substation,32547223,None
427,-121.723120895,39.0239330051,None,32943573,None
428,-109.925221428,27.5239001845,None,119144857,None
429,-109.934013131,27.4288854585,None,346321991,None
430,-109.374088786,27.0700987429,None,119140120,None
431,-110.864123846,27.9366034234,None,119152039,None
432,-77.4559139918,39.2050510091,Dickerson Generating Station,63912153,None
433,-89.9375856751,30.0096790405,Michoud Station,33727899,230000
434,-90.0023076778,29.9745899252,Tricou Substation,215048742,230000
435,-89.9631666095,30.0559710307,Curran Substation,187112688,230000
436,-89.734572131,30.2649530762,None,186591260,None
437,-89.7886777121,30.270150633,None,186596511,None
438,-80.3703054822,25.7929962736,None,230605089,230000
439,-80.435523902,25.8133545349,Levee Substation,103061408,500000;230000
440,-80.3308899016,25.8301756473,None,61240124,None
441,-83.8096727285,34.2630219975,None,179716524,None
442,-83.8026282517,34.2187279364,South Hall Substation,159608145,None
443,-94.2572024233,30.3036340815,Cypress Substation,154905442,500000
444,-98.6839510917,46.8760139022,Jamestown Substation,59986162,230000
445,-92.583823757,31.3626391779,Rapides Substation,187498943,None
446,-92.7136515005,31.3958799013,Rodemacher Substation,187532539,None
447,-92.4560799942,31.0608743512,Forest Hill Substation,187491040,None
448,-92.5134713811,31.2684324242,None,187498981,None
449,-92.4810446627,31.4169994102,Sherwood Substation,187550607,None
450,-92.4466845967,31.3193420783,None,187550602,None
451,-116.98441965,32.6794881662,Miguel Substation,105185729,230000
452,-117.138458035,32.7860290045,None,167005130,230000
453,-117.030972359,32.9171955561,Sycamore Canyon Substation,99645329,None
454,-115.211067935,36.0564178392,None,188301767,None
455,-101.147248681,41.0810502559,Gentleman Substation,164413898,None
456,-101.709421364,41.1019786772,Ogallala Substation,164883152,None
457,-100.758221329,41.0847142078,None,164413938,None
458,-82.2013064335,27.8559675684,Fishhawk Substation,37394042,None
459,-81.9409436313,27.8350052172,Pebbledale Substation,223998652,230000;69000
460,-93.3136374654,47.22985952,None,184112546,None
461,-92.294328137,46.7728329021,Arrowhead Substation,146214955,345000;250000;230000;115000
462,-93.648810273,47.2617308005,None,171694070,230000
463,-92.6907500821,47.3641931202,Forbes Substation,168726234,500000;230000;115000
464,-94.0664844959,46.4520827658,Riverton 230/115 KV Substation,136060747,None
465,-110.928431558,31.9716463757,None,181977554,None
466,-110.570445799,31.9646247399,None,181977555,None
467,-111.060487526,31.9221225681,Bicknell Substation,163602133,None
468,-110.130561435,32.0009541666,None,181977556,None
469,-110.231263169,31.5247300666,None,52000414,None
470,-109.893192288,32.0599922148,None,102739824,None
471,-110.203858816,32.1897156026,None,181967040,None
472,-114.312499945,48.2451727922,None,183091673,None
473,-114.141502286,48.3628058606,None,183094010,None
474,-114.019629648,48.3422662177,None,183094031,None
475,-114.628727846,47.5759132485,Hot Springs Substation,102517038,None
476,-121.762155452,38.0151615246,None,35799514,None
477,-121.564972025,37.7121537236,Tesla Substation,23837624,None
478,-121.895826552,38.0367826088,None,35732660,None
479,-122.318980343,37.58281288,San Mateo Substation,24294714,None
480,-122.117131401,37.6248092901,Eastshore Substation,33111643,None
481,-122.161080364,37.8479023234,Moraga Substation,33108052,None
482,-104.815882938,40.9938756568,Ponnequin Wind Farm,255329402,None
483,-103.942528382,41.819513111,None,104026793,230000
484,-76.4280304619,39.3652171576,Northeast Substation,55673310,None
485,-76.4011884667,39.415832029,Raphael Road Switching Station,54146513,None
486,-76.5131770132,39.2380993337,Riverside Generating Station,280778601,None
487,-81.4527839339,28.437292394,Convention Center Substation,47423968,None
488,-81.4409125223,28.4709890704,Southwood Substation,47429571,None
489,-81.754322923,26.4504321415,Corkscrew Substation,165781987,230000;13000
490,-81.7518392743,26.1761787768,Livingston Substation,230526305,230000;24000
491,-78.2516936742,41.1937376416,Moshannon Substation,181047000,None
492,-100.728919735,46.813637104,Bismarck Substation,46694887,None
493,-99.7646860928,46.8533770032,Weber Substation,127865192,None
494,-102.750481326,46.8386119157,Dickinson Substation,60686107,None
495,-100.225605164,45.5345774708,Glenham Substation,138298564,None
496,-100.798297962,47.1145043251,None,159923551,None
497,-78.6323190891,35.7690380643,None,237101553,None
498,-78.5544337516,35.7805852146,None,159559232,None
499,-99.7092972553,40.8865403556,None,172763724,None
500,-82.0501762712,33.0890171028,None,170156542,None
501,-82.4141703699,32.8835586631,None,52019753,None
502,-102.987640819,41.1641511661,Virginia Smith Converter Station,102222592,None
503,-111.941983967,33.3518168056,Kyrene Substation,106471938,None
504,-111.936035109,33.3540053472,Kyrene Substation,106471939,None
505,-112.045320828,33.3803266501,None,158627607,None
506,-111.965291916,33.2918690849,Knox Substation,106479092,None
507,-111.995130298,32.9603230385,Santa Rosa Substation,173698493,None
508,-111.912344369,33.4390686839,None,30568847,None
509,-111.941110298,33.4837294141,None,137619994,None
510,-111.829703285,33.3578818694,Corbell Substation,30692633,None
511,-76.9442313402,34.9136280533,Havelock Substation,181043717,None
512,-77.4470151064,34.8033350155,None,180772856,None
513,-76.8030925011,34.7485325126,Morehead Wildwood Substation,181211150,None
514,-76.9444265608,34.9145018411,None,181043726,None
515,-102.619866799,46.0327645594,Hettinger Substation,60326407,None
516,-102.661908697,45.5299732628,Bison Substation,159935987,None
517,-103.329889618,46.119746774,Bowman Substation,173686133,None
518,-106.00779393,43.0132552093,None,170533386,None
519,-122.210347683,47.2389759693,White River Substation,46522891,230000;115000
520,-120.968977544,47.2021851731,Cascade Substation,167541577,None
521,-80.8942030851,35.4753618092,None,108405262,None
522,-80.9747223865,35.3596158768,None,159455248,None
523,-81.0334757041,35.4327970187,Lincoln Substation,108405270,None
524,-81.4100299444,35.7212864815,Longview Substation,185561038,230000;100000
525,-80.9475371947,35.4213476932,None,108408244,None
526,-81.0356072193,35.4308683102,Lincoln Combustion Turbine Station,426038166,None
527,-81.9238374882,28.0811959758,None,224445357,None
528,-101.195950509,47.071797497,None,59433498,None
529,-101.199082428,47.0718262112,None,59433504,None
530,-101.199297508,47.0759394855,Center 345kV switchyard,59433500,None
531,-118.998296655,47.955042942,None,34800157,None
532,-120.077043801,47.2948450278,Columbia Substation,41429160,None
533,-120.511087516,47.1209312276,Schultz Substation,40514282,None
534,-117.504153154,47.7279652374,West Side Substation,170290593,None
535,-117.37349991,47.7492948045,Bell Substation,40524142,None
536,-119.782646892,46.6204994419,Midway Substation,40629109,None
537,-119.529131614,47.1052835583,Potholes Substation,40629119,None
538,-119.651782319,47.9859756608,Chief Joseph Substation,41446699,None
539,-99.6654470421,25.6008941912,None,328666945,None
540,-98.276432115,25.9781592356,Subestación eléctrica,98413669,None
541,-101.3335873,47.2865915972,None,58755531,None
542,-101.213496759,47.0675840262,None,59434249,None
543,-101.199409318,47.0700759693,None,180120063,None
544,-97.5407774723,38.7272408196,Summit Substation,164774434,None
545,-98.2190348761,38.8588682465,None,166736653,None
546,-97.6312954762,38.3211330693,None,172536508,None
547,-96.4630560196,38.6457449453,Morris Substation,117922217,None
548,-97.0403745557,38.7052423943,None,172546852,None
549,-105.996102888,28.6129906237,None,122782244,None
550,-106.453612903,30.1792506363,None,122782272,None
551,-106.164169466,28.5857352989,None,122782268,None
552,-106.813376008,28.4462885648,None,122782293,None
553,-105.950106829,28.6398521206,None,122782271,None
554,-80.4532200393,25.7291474859,Newton Substation,143884839,230000;24000
555,-80.4181412633,25.7873097238,137th Avenue Substation,373326806,230000
556,-80.3336202517,25.4356448061,None,140104212,None
557,-80.3965819705,25.6401387677,Davis Substation,140124149,230000;138000
558,-82.8019020653,32.9985038018,None,170295993,None
559,-82.981584497,33.0945057868,None,170296000,None
560,-82.4065344687,32.2318916068,None,160308056,None
561,-82.7381885321,32.7384529845,None,170685415,None
562,-122.767670863,45.614324698,None,51757617,None
563,-122.844033472,45.5074364075,Saint Mary's Substation,51777289,None
564,-122.895282604,45.5497828641,Keeler Substation,51756731,None
565,-122.889141141,46.0396653122,Decommisioned Trojan Substation,95813050,None
566,-103.85228621,44.5368163792,Lookout Substation,171246134,None
567,-103.260634201,44.1198144102,None,172169561,None
568,-103.753160766,44.3229291407,Yellow Creek Substation,101808021,None
569,-105.204115686,44.3072999983,Hughes Substation,171175455,None
570,-117.192386013,32.766068994,Old Town Substation,119718455,230000;69000
571,-117.219128719,32.918062293,Peñasquitos Substation,25453503,230000;69000
572,-106.133523851,28.7297937842,None,122782273,None
573,-106.456299405,30.1761663683,None,122782270,None
574,-107.899615194,30.5253109284,None,287717109,None
575,-106.48636853,31.3308681564,Central Termoeléctrica Samalayuca,122810847,None
576,-106.462976008,31.5865496279,None,122810859,None
577,-106.537513745,31.7314961878,None,152528849,None
578,-105.991686934,39.6089783719,Dillon Substation,131695171,230000
579,-106.033489562,39.4850995152,Breckenridge Substation,128413938,230000
580,-105.479575242,39.7426306419,Idaho Springs Substation,80643442,None
581,-105.708105137,39.6536125128,Cabin Creek Substation,128329894,230000
582,-106.13736866,39.7919624184,Blue River Substation,133302129,230000
583,-90.016616287,32.3587361733,None,186940708,None
584,-89.964460725,32.2884456412,Rankin Substation,138661925,None
585,-75.2406035471,38.5837659607,None,69468741,None
586,-75.2435171041,38.5856124696,None,69468764,None
587,-105.020967952,40.8609703175,None,103629395,230000
588,-104.813196161,40.6075401203,Ault,103628426,345000;230000
589,-105.151269409,40.6635660936,Laporte Substation,138397896,230000
590,-103.249983324,34.4114979646,None,365634136,None
591,-103.170797345,34.3913844888,None,365921885,None
592,-103.337878769,34.3028580393,None,164252436,None
593,-103.170871728,34.3017738208,None,164252422,None
594,-117.116730051,33.1257598292,Escondido Substation,99650319,230000;69000
595,-117.571463428,33.4531559981,Talega Substation,116440984,230000
596,-104.922200182,39.6014421359,Greenwood Substation,95666782,None
597,-104.90865081,39.6100643465,None,262793540,230000
598,-85.0825026074,32.6082700235,None,171967073,None
599,-84.9795880041,32.6152249411,None,171967077,None
600,-84.9156610708,32.6104157312,Fortson Substation,163762708,None
601,-85.0989589419,32.607773292,Plant Franklin,425224195,None
602,-84.992268482,32.4818517043,None,186406808,None
603,-85.037981413,32.5414847669,None,186406805,None
604,-85.1473905077,32.5208535222,None,186406383,None
605,-85.4247268176,32.7862512643,None,186411651,None
606,-85.3417471665,32.7435602507,None,186411647,None
607,-75.9823514976,42.1369387283,Oakdale Substation,175668416,None
608,-82.6357081933,35.5374103302,Enka Substation,213557860,None
609,-82.5419610305,35.4709557655,Asheville Plant,419990964,None
610,-122.307175106,47.5144176786,Duwamish Substation,35463781,None
611,-122.26709116,47.5064634187,Creston-Nelson Substation,37047357,None
612,-122.36619678,47.5495089281,Delridge Substation,37222218,None
613,-84.2347213744,33.6509264017,None,171479143,None
614,-84.1245464804,33.6368572186,Klondike Substation,159784541,None
615,-84.3504487558,33.7106110121,None,171479149,None
616,-84.3333901877,33.605940094,None,171479107,None
617,-82.0543281714,33.3994247031,None,170166801,None
618,-101.745306465,35.2835251245,None,174863805,None
619,-100.890966353,35.4019339588,None,183493332,None
620,-101.863913729,35.0996965068,None,183504247,None
621,-101.776347521,35.1486875043,None,174868350,None
622,-90.8963333267,30.4876221096,Coly Substation,139461233,500000;230000;69000
623,-90.9762375195,30.371663478,None,186844767,None
624,-103.858385201,33.9907223581,None,183349093,None
625,-103.313857624,32.7392747404,None,183387721,None
626,-102.569986639,34.181351595,Tolk Substation,164252420,None
627,-81.6200119304,26.2743425362,Orangetree Substation,372761219,230000;24000
628,-81.6865921704,26.231987142,Weber Substation,303334468,None
629,-118.379610838,46.0701473883,None,140354180,None
630,-118.846125016,46.0638144179,Wallula Substation,169137767,None
631,-119.938926091,46.8768848055,Vantage Substation,41446536,None
632,-117.704068345,46.3507717682,None,93744182,None
633,-78.4323363122,34.7376851419,None,162810646,None
634,-78.7820518187,34.8791660499,Cumberland Substation,80434221,None
635,-111.024692337,29.0806379577,None,60777096,None
636,-111.097213823,29.0972152649,None,57837213,None
637,-112.692319954,29.9087919878,None,213544603,None
638,-110.895343728,27.990050029,None,339029848,None
639,-110.073925721,27.5165479678,None,339029834,None
640,-110.834030929,29.0343827816,Subestacion Hermosillo Numero Cinco,58157014,None
641,-76.0752723612,36.8383587691,Lynnhaven Substation,82993806,None
642,-76.0923008705,36.7710074247,Landstown Substation,402497011,None
643,-104.413533208,32.5806797854,None,177431183,None
644,-104.240869839,32.8143760505,Eddy HVDC Tie,164288138,None
645,-103.587356919,40.2545276726,None,375037522,None
646,-103.596449896,40.2564760869,None,81286418,None
647,-104.800620337,40.0203393235,None,291359240,None
648,-79.0497793637,35.5906416631,None,185493771,None
649,-79.0490314198,35.5919349157,None,32288386,None
650,-80.2988383373,25.6325505811,None,48800411,None
651,-115.245242277,32.4115862687,None,52175527,None
652,-115.225086945,32.3919134217,None,52175531,None
653,-115.459259163,32.6050276609,None,52174012,None
654,-76.4538294628,39.8644286932,Otter Creek Substation,96141992,None
655,-76.5404629359,39.6874134659,Constatone Substation,53776393,None
656,-115.226575105,32.3910387272,None,52175532,None
657,-115.676486838,32.5968841676,None,52173997,230000
658,-123.238204417,43.2061660426,Dixonville Substation,101458605,None
659,-123.225035988,43.2181507688,Dixonville Substation (500kV),101458606,None
660,-123.016257458,43.9969859848,Alvey Substation,93416192,None
661,-123.043715069,44.095711035,None,88615577,None
662,-123.410057907,42.7471114857,None,181388972,None
663,-123.564828408,43.1776984849,None,181388971,None
664,-78.8823211623,38.4113660101,Harrisonburg Substation,82715314,None
665,-78.9707361043,38.3142265741,Valley Substation,96583494,None
666,-79.1138421858,38.1937636804,West Staunton Substation,97734695,None
667,-78.8128052641,38.2660570002,Grottoes Substation,82457699,None
668,-122.365518824,47.0870221941,None,258359991,None
669,-106.047511056,39.2678763698,Alma Substation,162628281,230000
670,-83.4024916622,33.3044193634,None,171527955,None
671,-83.3057199605,33.2115847554,None,171527960,None
672,-76.2067441925,40.1420575566,South Akron Substation,95986378,None
673,-76.694387986,40.0953358791,Brunner Island Power Station,168814620,None
674,-75.9137854525,40.3074302438,South Reading Substation,95975825,None
675,-100.243780847,35.3728479718,None,183502012,None
676,-92.6081307067,47.5659221726,None,183182039,230000;115000
677,-93.0329478163,47.4996726593,Shannon Substation,176503131,None
678,-89.5927226383,30.3099506401,None,186539098,None
679,-89.3947153171,30.4115840167,None,186539088,None
680,-89.7286402933,30.2668199477,None,186573893,None
681,-81.5376439041,30.1073701549,Bartram Substation,132645597,230000
682,-81.6016056278,30.074123101,Switzerland Substation,93153968,230000
683,-81.4335801582,35.1573568007,Ripp Switching Station,120924507,None
684,-81.1902094184,35.2240774994,Peacock Substation,120874146,None
685,-81.1215684325,34.9976386021,Newport Tie Substation,120865501,None
686,-81.071719906,35.0539321667,Catawba Nuclear Station,120926088,None
687,-92.2635303623,30.8451828397,Cocodrie Substation,187476763,None
688,-88.0537799982,43.0287273178,Bluemound Substation,40837860,None
689,-87.8373996608,42.8425481983,Oak Creek Power Plant,362102766,None
690,-88.1733054559,43.0086286446,Arcadian Substation,40836734,None
691,-101.318760325,47.283062716,None,58745573,None
692,-101.315342114,47.2823975186,Leland Olds 345 kV Substation,58745565,None
693,-101.331512474,47.2770287188,None,59432768,None
694,-101.211354893,48.117267226,None,159783922,None
695,-101.429865233,47.5008966798,Garrison Substation,59293069,None
696,-122.768908345,38.8349674123,None,183206633,None
697,-122.810164483,38.8289746719,None,183206679,None
698,-78.0110503335,33.9597185246,None,26206954,None
699,-77.937512814,34.1540834965,Barnard Creek Substation,159529013,None
700,-77.8282123414,34.2255528401,None,184521742,None
701,-78.2276033066,34.3257768102,Delco Substation,159529015,None
702,-77.9839320048,34.2818166369,None,159455354,None
703,-77.8724331438,34.2862473759,None,184521743,None
704,-77.962757634,34.7244874487,Wallace Substation,180344449,None
705,-77.8928066315,34.3858722309,None,180344448,None
706,-78.3288178157,34.0389456764,None,159529050,None
707,-96.6327486991,39.0141969205,McDowell Creek Substation,172557035,None
708,-111.992945406,38.8445053602,Sigurd Substation,104538864,None
709,-114.807323679,39.3365506665,Gonder Substation,163043221,None
710,-111.485854739,36.9320213706,None,104717376,None
711,-91.0860689118,30.3856369093,None,175481586,230000
712,-78.2799073566,35.0583645682,Clinton Substation,184689404,None
713,-88.1858697385,30.8137927655,None,165798656,None
714,-88.2944512773,30.695466385,Big Creek Substation,165797610,230000;115000
715,-88.1287164667,30.7723721673,North Mobile Substation,186363006,230000;115000
716,-80.3293289996,25.9006759816,None,170092177,230000
717,-81.7557876584,26.3558834287,Terry Substation,383229027,230000;138000;13000
718,-81.7688443356,26.6260181258,Gateway Substation,372761209,230000;24000
719,-81.7782878208,26.7191105449,Calusa Substation,224044116,230000
720,-81.9768386809,26.9534864273,Charlotte Substation,164420806,230000;138000;69000
721,-81.8105034022,27.1513449542,None,230281692,None
722,-81.8090530697,27.2245253997,Whidden Substation,230277868,230000;69000
723,-81.9509977991,27.0442780796,None,230281698,None
724,-83.1087254386,35.2656004154,Tuckasegee Tie Substation,148652809,None
725,-76.8775596832,38.8801016065,Ritchie Substation,58360589,None
726,-76.8013564169,38.8567700866,Oak Grove Substation,64790273,None
727,-122.865926121,46.7539315798,None,171548803,None
728,-122.839628256,46.7274532382,None,50061271,None
729,-122.625376806,40.645955494,None,186041109,None
730,-122.444130041,40.6097873347,None,150420531,None
731,-122.767447263,40.7921453764,None,186041113,None
732,-77.1452551454,39.0316527008,Bells Mill Substation,53338905,None
733,-81.376650467,28.4491956005,Sky Lake Substation,70107930,230000;69000
734,-82.6659289101,34.438097562,Anderson Substation,168084258,None
735,-82.2711124475,34.3049357136,None,171556340,None
736,-82.8206743102,34.3552176547,None,52168409,None
737,-82.7918404027,34.7144509629,Central Tie Substation,27766872,None
738,-82.7744996812,34.3478571559,None,171556342,None
739,-82.5942714028,29.6696405391,Newberry Substation,380551972,230000
740,-82.5053720993,29.5579714792,Archer Substation,380476937,230000
741,-82.6765147048,29.8122394936,None,182934473,None
742,-82.5796769506,29.6900964799,None,380620843,230000
743,-96.1170324969,39.2825176558,Jeffrey Substation,164668199,None
744,-96.5425102181,39.1886460512,East Manhattan Substation,75716243,None
745,-78.5662674368,40.4022286074,None,181210272,None
746,-78.3257326609,40.4661231593,Altoona Substation,181210242,None
747,-78.9160814758,40.4037505986,Johnstown Substation,168817230,None
748,-122.75520806,38.7787486821,None,183206705,None
749,-122.583803382,38.4428002138,None,33297798,None
750,-118.071717391,45.3122946,La Grande Substation,103121717,None
751,-118.746850385,45.6380317422,Roundup Substation,103095379,None
752,-117.863618712,45.0670129102,None,101108285,None
753,-122.711689608,38.7488272812,None,183206715,None
754,-122.719643151,38.752262629,None,183206729,None
755,-122.593337203,38.4288558105,None,183206719,None
756,-122.581229267,38.2509071556,Lakeville Substation,29426718,None
757,-122.540361292,38.0767756403,Ignacio Substation,33046461,None
758,-122.760693682,38.4976691396,Fulton Substation,170490300,None
759,-86.0917511003,40.2761790469,Tipton West Substation,179735350,None
760,-85.9727426755,40.0984415575,Noblesville Substation,179005713,None
761,-86.1495105801,40.4663064359,Kokomo Highland Park Substation,153129471,None
762,-122.314551557,47.5610707027,None,243581153,None
763,-122.303113205,47.6146779078,East Pine Substation,37046550,None
764,-76.5803581142,36.7104707505,Suffolk Substation,80921422,None
765,-76.4614603896,36.2226063087,Winfall Substation,155644157,None
766,-76.6023130951,36.7842086836,Kings Fork Substation,82202437,None
767,-77.0794418322,36.2562564859,Earleys Substation,155438117,None
768,-104.717565023,39.5253493518,None,95609693,None
769,-104.782691012,39.5094808383,None,93859592,None
770,-104.703000654,39.6090187781,Southlands Electrical Substation,94835274,230000
771,-95.2414782514,39.0331872225,None,126988433,None
772,-95.2709177412,39.0028700621,Lawrence Hill Substation,172577315,None
773,-120.279968652,47.5367232177,Sickler Substation,36741994,None
774,-120.290890478,47.5299603719,Rocky Reach Substation,34859714,None
775,-114.884231156,33.0469625511,None,166658928,230000
776,-114.748642971,32.7603613394,None,90961067,230000
777,-78.4199885497,42.7643940551,High Sheldon Substation,146645873,None
778,-78.5810487149,42.8326653129,Stolle Road Substation,92967236,None
779,-78.1916636709,42.7263611798,Wethersfield Substation,146646819,None
780,-81.332784497,28.9057452253,None,382412266,None
781,-81.3344406534,28.9048164501,None,382412268,None
782,-96.6317197545,43.6005356882,None,86098818,None
783,-96.6489792344,43.599157191,None,86068025,None
784,-97.9243206147,44.600597131,None,138331823,None
785,-98.341382925,44.4707185361,Huron Substation,138298565,None
786,-96.4782212898,44.8499108485,None,138246302,None
787,-95.5532721046,44.8277277918,Granite Falls Substation,137937087,None
788,-122.142755415,39.7778127218,Glenn Substation,181693250,None
789,-122.269317624,39.3684080211,None,181709666,None
790,-122.264880084,40.3977111462,Cottonwood Substation,93128755,None
791,-104.769606036,47.1062468375,Dawson County Substation,137822360,None
792,-105.793698374,46.4082261177,None,137835349,None
793,-106.412010382,48.0134170845,Fort Peck Station,173785067,None
794,-103.070074658,46.8417721598,Belfield Substation,137864809,None
795,-80.3768085107,25.9910355475,Basscreek Substation,164881303,230000;24000
796,-80.3624586511,25.9772341301,None,164881304,None
797,-80.4087015442,25.9923386289,None,230623593,None
798,-121.210583306,44.2701329951,Redmond Substation,88982442,None
799,-120.932648126,44.2256000651,None,94053280,None
800,-115.715699156,32.717701233,Imperial Valley Substation,52183964,500000;230000
801,-115.629281425,32.6013818313,None,345602357,None
802,-115.662656342,32.6002516836,None,345602389,None
803,-121.268270282,44.6015928771,Round Butte Substation,99446842,None
804,-121.035658991,45.1937734826,Maupin Substation,56392639,None
805,-122.391636706,49.0686792024,None,169509804,None
806,-122.682383702,49.0990285413,None,25500663,None
807,-122.297338576,49.0688919906,Clayburn Substation,25495523,None
808,-81.9299012522,28.0867013219,McIntosh Substation,224445364,230000;69000
809,-108.466503039,37.4305205485,Lost Canyon Substation,162513838,None
810,-108.477331662,36.7971492203,Shiprock Substation,104762766,None
811,-107.535371576,38.4294814174,Curecanti Substation,105540928,None
812,-78.9306913384,35.8714371447,None,32334769,None
813,-115.011453178,39.2651826318,None,166020018,None
814,-81.9811091724,28.0728217855,None,238390674,230000
815,-81.9996039195,28.0318613116,West Substation,200033607,230000;69000
816,-81.1891474145,42.9385565642,None,125243550,None
817,-81.193673872,42.9740423248,None,125433520,None
818,-84.2760121278,34.0578525572,None,177931192,None
819,-84.3110385305,34.0639513488,None,177931198,None
820,-84.2291375498,34.0574539236,None,177931277,None
821,-84.266652808,34.0986393104,None,177931194,None
822,-84.2430936461,34.0974182821,None,177931217,None
823,-84.2761286955,34.155930759,None,177931264,None
824,-84.2294888851,34.1289481057,None,177931269,None
825,-76.8274250466,39.1941146325,Columbia Substation,40256446,None
826,-76.8726306412,39.1410371989,High Ridge Substation,53544634,None
827,-76.8738045357,39.2133104598,Wilde Lake Substation,57570857,None
828,-81.5889416328,34.2468718762,None,185197507,None
829,-82.2932550381,34.3041949922,None,171542429,None
830,-81.3151030522,34.2959194064,None,185039621,None
831,-81.6977202875,33.8721761267,None,185197506,None
832,-81.5765442801,33.8876013524,None,185201667,None
833,-84.5852852181,34.0501120441,None,177931207,None
834,-84.554588149,34.0571431651,None,177931263,None
835,-84.6496786657,34.0616093441,None,175158194,None
836,-92.9213469769,45.6715519437,Rush City/CAPS,145023946,None
837,-92.8432508855,45.7765686407,None,184248762,None
838,-93.0367004487,45.3511624715,None,184336322,None
839,-93.0116239999,44.8874113989,Maxwell,79236456,None
840,-101.696026449,44.3042519959,Philip Tap,172844535,None
841,-101.686392399,44.0832582161,Philip Substation,172844534,None
842,-121.970504818,38.2854362275,Peabody Substation,36250573,None
843,-121.920914412,38.4009623314,Vaca Dixon Substation,24376544,None
844,-82.4044317749,27.799253988,None,223975447,None
845,-122.754326987,42.3639220096,Meridian Substation,101278685,None
846,-123.278143886,42.4470741078,Grants Pass Substation,181388952,None
847,-122.822297435,42.346462668,None,181548172,None
848,-84.3785389615,34.1055873608,None,177931230,None
849,-84.4672278018,34.0986493169,None,177931272,None
850,-76.0318780334,39.761082606,Nottingham Substation,95953894,None
851,-76.3857104249,39.7010547291,Graceton Substation,54146507,None
852,-84.1335752687,34.3781184828,None,177912657,None
853,-84.3370977447,34.3268425836,None,159758301,None
854,-84.0822990502,34.3928614146,None,177912658,None
855,-75.2246449158,43.1530532079,Porter Substation,168747175,None
856,-75.319904415,43.9220118335,None,162784585,None
857,-73.9974872674,42.8288448074,Rotterdam Substation,139587105,230000;115000
858,-75.3492417655,43.7652972118,None,138527134,None
859,-84.5134526654,34.0852784648,None,177931262,None
860,-84.5616793422,34.0280334874,None,175158205,None
861,-84.2834584236,34.1742820248,None,177931281,None
862,-84.7790637969,34.2099045581,None,178742281,None
863,-84.8105944865,34.1799934392,None,175158197,None
864,-117.138328719,32.7848090107,None,119718924,None
865,-84.2239856038,34.0153212034,None,178018840,None
866,-122.403872654,45.5588710988,Troutdale Substation,54051870,None
867,-122.998904139,45.0146069709,Chemawa Substation,32333686,None
868,-122.659051257,45.6612584709,Ross Substation,51799304,None
869,-110.886363493,29.1759554153,None,57841158,None
870,-109.678568911,30.3693315049,None,338334707,None
871,-111.004499095,29.2013064867,None,57837209,None
872,-111.131149779,30.5252425379,None,297827557,None
873,-84.1069893431,31.3678173379,Raccoon Creek Substation,164660268,None
874,-84.0816559725,31.3874473763,None,164660269,None
875,-84.1751543026,31.2607065142,None,172096000,None
876,-84.1335570289,31.4438912306,None,171039375,None
877,-95.991308968,46.8609052109,Audobon 230KV Substation,174949423,None
878,-96.8602646146,46.8317696661,None,125417221,None
879,-95.0111141008,46.8277223691,Hubbard Substation,104909311,None
880,-90.0205171199,29.8847863949,None,174490676,230000
881,-90.0598652453,29.8567775372,None,187141532,230000
882,-115.939828633,32.568103673,None,345602377,None
883,-115.88377621,32.6145779912,None,345602370,None
884,-108.270965016,36.2847289296,None,132777028,None
885,-108.272883386,36.4852403126,None,182451290,None
886,-107.848269,35.4027162159,None,182451291,None
887,-108.27099474,36.2790137664,None,182451287,None
888,-122.223262012,39.1205661492,Cortina Substation,24388861,None
889,-122.262994447,39.5395164998,Logan Creek Substation,181693225,None
890,-116.05732552,48.087308686,Cabinet Gorge Substation,172459089,None
891,-116.870686919,47.8040000227,None,169759068,None
892,-81.9169318355,26.6983809859,Lee Substation,303082265,230000;138000
893,-89.9052927786,30.7812326954,Bogalusa Substation,138642517,None
894,-89.8894782016,30.5339145689,None,186589480,None
895,-90.1143001016,30.4920389936,None,186595238,230000
896,-90.1921320861,30.4272798163,None,186595241,230000
897,-89.9067413327,30.7852343684,None,165797608,None
898,-89.9063047917,30.7827715237,Bogalusa Substation,138642521,None
899,-96.401376935,43.0678782913,None,173111642,None
900,-96.3062647359,42.602985135,None,27051487,None
901,-96.4499655166,43.3760233389,None,173111639,None
902,-79.7189964393,43.648610028,None,169399126,None
903,-81.0540818149,33.9628179499,None,185230442,None
904,-81.0603470311,34.0216247427,None,185230443,None
905,-81.0615186492,34.0576059122,Denny Terrace Substation,185130609,None
906,-113.968214539,46.9110749619,Rattlesnake Substation,134079601,None
907,-112.888119616,46.515665396,Garrison Substation,102124678,None
908,-112.875504694,46.0995977336,None,170401627,None
909,-94.7129966648,45.3916988754,Paynesville Substation,148096122,230000;115000
910,-95.0531226132,45.0821483543,Willmar Substation,147280976,None
911,-95.529435432,44.8034019505,Minn Valley Substation,138262000,None
912,-96.0164334346,45.5845330556,Morris Substation,137943676,None
913,-82.1468741302,27.9660292302,None,377037949,230000
914,-121.486241395,39.5326744311,None,92832902,None
915,-121.644797065,39.5551279182,Table Mountain Substation,30755899,None
916,-97.7352642654,39.4245583864,None,140592266,None
917,-97.5442455482,39.4276511951,None,130510242,None
918,-80.7778784703,27.2399168136,Sherman Substation,379520142,230000;69000
919,-80.4805529619,27.2854494926,Allapattah Substation,128236112,230000;24000
920,-80.4160920132,27.372032789,Midway Substation,102660724,500000;230000;138000;13800
921,-109.490575799,41.5338544338,None,156419217,None
922,-109.49987381,41.6483919467,None,164667340,None
923,-109.478175111,41.5332825228,None,156728624,None
924,-109.272800278,41.5368246521,Firehole Substation,161728481,None
925,-87.8442435338,30.6748039513,None,186074261,230000
926,-88.0593237897,30.7634130097,Chickasaw Substation,186072027,230000;115000
927,-87.9994608553,31.0008791553,Barry Electric Generating Plant,419990965,None
928,-85.8983406942,31.9144477372,None,186254497,None
929,-85.5796174491,31.2939231332,Pinckard Substation,182398210,230000;115000
930,-86.2606168415,32.2291597167,Snowdoun Substation,164658796,None
931,-117.368794792,34.3665294247,Lugo Substation,86369466,None
932,-115.00848001,35.7973238409,Eldorado Substation,62315137,None
933,-99.9134709541,35.3833498336,None,183502013,None
934,-99.8951700116,35.4794046438,None,183502016,None
935,-99.3986385245,35.388334658,Elk City Substation,167700604,230000;138000;69000
936,-88.7675416271,30.417460041,None,25052353,None
937,-88.5169394396,30.3905920162,None,139893291,None
938,-88.557825229,30.5372102105,Victor J. Daniel Electric Generating Plant,130060636,None
939,-100.32640506,44.7058741714,Sully Buttes Substation,172858069,None
940,-99.4346240754,44.130508814,Fort Thompson Substation,86911318,None
941,-98.3926168944,44.4736654329,Broadland Substation,173001723,None
942,-120.298837358,37.8094228094,None,181658825,None
943,-88.2801596021,30.8459960746,None,186049739,230000
944,-88.0317136976,30.996253879,None,185943266,None
945,-82.4577135347,27.5518649929,None,45589711,None
946,-75.5039268008,40.4552312827,Hosensack Substation,95450661,None
947,-75.5830932442,40.4818756513,Alburtis Substation,95421743,None
948,-75.7638628478,40.4769420064,None,183785851,None
949,-75.9272958895,40.4163039242,None,183785788,None
950,-75.5617961105,40.5743670275,Wescosville Substation,95450736,None
951,-75.2301203429,40.6663499389,Glendon Substation,95565346,None
952,-75.6296165608,40.3552478251,North Boyertown Substation,33712950,None
953,-76.8394658812,39.3392022859,Granite Substation,40256737,230000;115000
954,-76.7818246058,39.2314212353,Howard Substation,53544637,None
955,-76.8398279694,39.4600201209,None,398807151,None
956,-88.0365194278,31.0194495364,None,185943263,None
957,-87.1276460087,31.1971537123,North Brewton Substation,185937415,None
958,-88.0486062793,31.1015603586,None,185949233,None
959,-122.777214262,45.3291372315,Pearl Substation,54674660,None
960,-122.558987842,45.3385678565,McLoughlin Substation,93174018,None
961,-121.161059669,38.7074716056,Western Folsom Dam Substation,28517608,None
962,-121.264298833,38.7617029941,Berry Street Receiving Station,29989554,230000;60000
963,-80.7947603019,28.366817494,Oleander Substation,230720747,230000;138000
964,-80.7945050381,28.3654121263,Plant Oleander,230720746,None
965,-108.71574645,45.8489757591,Shorey Road Substation,182953197,None
966,-108.715888084,45.7850870835,None,182953247,None
967,-110.665867275,45.9549528053,Wilsall Substation,182953198,None
968,-111.513094625,45.9355245227,Three Rivers Substation,182955445,None
969,-85.1162231292,31.2237601843,None,164658819,None
970,-84.900800301,30.6638577244,Sinai Substation,165844042,230000;115000;12000
971,-84.0050447084,30.9084743743,None,172096005,None
972,-81.4083567977,27.2663512655,Fisheating Creek Substation,303178998,230000;69000;13000
973,-81.4932896831,27.5811138878,Avon Park Substation,351452804,230000;69000
974,-104.575938408,38.2112595325,Comanche Substation,104039671,230000
975,-104.576264461,38.2062316627,Comanche generating station,419539158,None
976,-104.224038974,38.2557985903,Boone Substation,106213152,230000
977,-120.407394197,37.2928285447,Wilson Substation,79176953,None
978,-119.917003447,36.8533029657,None,182619786,None
979,-92.7203823709,31.3992895562,Brame Energy Center,420139934,None
980,-93.2537733958,31.1399305944,East Leesville Substation,187609029,None
981,-92.7178288092,31.5307949852,Colfax Substation,187558671,None
982,-106.613606262,45.8910557916,None,101852412,None
983,-107.600979803,45.7673897321,None,183178947,None
984,-80.1598849242,43.9155676869,None,66495745,None
985,-80.5664940386,43.4707922584,Waterloo UW TS,141901401,None
986,-122.912976566,46.18165269,Lexington Substation,55267246,None
987,-82.6119265925,27.4617656574,Cortez Substation,172999952,230000;138000;24000;14000
988,-82.46840362,27.4607096033,Johnson Substation,34902204,230000;138000
989,-78.862645078,36.4786888279,None,166905107,None
990,-79.050520319,36.4810895292,Person Substation,150575082,None
991,-78.4227486751,36.3083126687,None,166905113,None
992,-78.0168853004,36.0746157091,None,184611897,None
993,-78.3921479733,36.2805790414,None,184611899,None
994,-104.873923301,40.2432805981,None,64854189,None
995,-105.206026517,40.0188132425,None,64478196,None
996,-81.6808217543,31.2935443476,Thalmann Substation,52068570,500000;230000
997,-81.6800506315,30.8260841648,None,174697783,None
998,-81.558680692,31.2799717826,None,174697782,None
999,-82.143672811,31.4230380283,None,52069715,None
1000,-120.826374615,37.7726429815,None,79249627,None
1001,-121.013773307,38.015540407,None,32867671,None
1002,-81.5857878352,33.6024627363,None,185247012,None
1003,-84.4468141239,34.4579153615,None,171713849,None
1004,-84.3788412949,34.3865558796,None,171713857,None
1005,-84.5289117993,34.5958212648,None,171713858,None
1006,-112.876240325,46.1047377108,Anaconda Mill Creek Substation,170263866,None
1007,-112.926359004,43.5336908214,Antelope Substation,170229057,None
1008,-92.0735524498,30.1750608206,Acadiana Mall Substation,187434304,230000
1009,-92.0457096,30.238777588,None,187432265,None
1010,-92.0502563882,30.1555376255,Flanders Substation,187461477,230000
1011,-84.6738006754,34.6123610583,None,53270552,None
1012,-82.0392939623,28.0832215737,Griffin Substation,166672286,230000
1013,-81.8878947012,27.8240181064,Barcola Substation,381590862,230000
1014,-74.8048173861,45.0040332435,None,79293030,None
1015,-93.4140933533,31.5057842757,None,187630923,None
1016,-93.4308994808,31.8737466195,None,187630929,None
1017,-93.5692389844,32.0350509801,None,187625958,None
1018,-76.217555792,39.4410431077,None,71075151,None
1019,-76.2834894833,39.4517687182,None,64715802,None
1020,-82.2468957799,31.6450266289,None,160308090,None
1021,-82.37184904,31.5459334598,None,164875451,None
1022,-80.296778886,26.1962021157,Conservation Substation,289938318,500000
1023,-80.2965470663,26.1450566298,Hiatus Substation,154392866,230000;24000
1024,-80.2672489313,26.1798264602,Springtree Substation,154392871,230000;24000
1025,-80.4396215559,26.0353577261,Andytown Substation,103045010,500000;230000;35000
1026,-80.1986915146,26.0716077611,Lauderdale Substation,48829189,230000;138000;13800
1027,-120.381405221,38.1445483299,None,181457829,None
1028,-120.763975487,38.2165771379,None,182791482,None
1029,-121.466792387,38.9351996487,Rio Oso Substation,86463615,230000;115000
1030,-77.2505798982,37.6345649553,Old Church Substation,96191838,None
1031,-77.4844716435,37.6976404729,Elmont Substation,81597861,None
1032,-83.6230888779,42.3531478068,Coventry Substation,175498592,345000
1033,-83.6292922222,42.4480377132,None,199274533,230000
1034,-112.558736596,42.8926903666,Kinport Substation,103236961,None
1035,-112.87020614,42.7729452038,Brady Substation,103077409,None
1036,-101.739164814,33.5226770316,Jones Station,183461221,None
1037,-101.792384386,33.5207570422,None,183475074,None
1038,-101.791453613,33.5711718526,None,183461223,None
1039,-101.826266258,33.5117123114,None,183461222,None
1040,-101.854909254,33.5186096375,None,183475079,None
1041,-102.055672428,33.4915116095,None,183383431,None
1042,-77.4527628724,39.2076903486,None,53536104,None
1043,-77.5148042159,39.2964012428,Doubs Substation,53533932,500000;230000
1044,-77.4253532636,39.4439138356,None,63588136,None
1045,-77.4010994772,39.4395662154,None,52960563,None
1046,-77.5662085371,39.6717627172,None,62984503,None
1047,-77.639862838,39.5126463771,None,63404050,None
1048,-77.4414473234,39.2253637782,None,63912129,None
1049,-77.4548585965,39.2079970234,None,63912121,None
1050,-77.4626000145,39.2088824832,None,53536105,None
1051,-77.4647719467,39.2097066087,Dickerson Generating Station,63912127,None
1052,-114.133712157,35.0554897214,None,172983659,None
1053,-114.135485788,35.0537319897,None,172983651,None
1054,-114.086302813,35.1383584557,None,82005359,None
1055,-113.717963455,35.2508034258,None,82008878,None
1056,-98.3551197304,40.5832274903,None,172750397,None
1057,-98.2617034931,40.90735411,None,142493876,None
1058,-97.2804537576,41.425363086,Columbus East Substation,141272433,None
1059,-97.3308654691,41.469172681,None,144660080,None
1060,-123.009719555,44.3882036248,None,128370036,None
1061,-123.047896793,44.2477114981,None,181510022,None
1062,-123.0364642,44.5896605698,Fry Substation,177075524,None
1063,-76.4211010287,36.8753609639,None,81536396,None
1064,-76.3769920031,36.8710901222,None,81603219,None
1065,-76.5248675519,36.8833778847,Crittenden Substation,81536407,None
1066,-103.965242647,32.5058831015,None,183387714,None
1067,-104.200425482,32.4453464143,None,183373829,None
1068,-103.353104818,32.7133503658,None,183371429,None
1069,-77.6235909899,37.6595901971,Short Pump Substation,96396692,None
1070,-77.7939143159,37.6361449426,North Pole Substation,96396693,None
1071,-77.7040135219,37.5026711773,Midlothian Substation,82442537,None
1072,-90.2790596991,32.3585314729,Northside Drive Substation,138601883,None
1073,-90.3292873967,32.3111556124,Ray Braswell Substation,99284610,500000
1074,-102.609725442,37.704379494,None,103744924,None
1075,-102.528818593,38.2067034443,Lamar HVDC Tie,163973336,None
1076,-124.407332638,42.4836090205,None,183820297,None
1077,-124.075645036,43.2130444165,None,181388954,None
1078,-87.7814116658,32.602894906,Greene County Station,186578274,None
1079,-88.676888231,32.4146362944,None,186582743,None
1080,-88.6096214356,32.1045617857,None,186577139,None
1081,-90.018093396,34.9676334773,None,186995083,None
1082,-90.0484481423,34.9964221484,U.S. TVA FREEPORT 500 KV SUBSTATION,90962732,500000
1083,-81.9621483396,27.6369009766,None,381454670,230000
1084,-81.9258345092,27.5234955654,Vandolah Substation,381438623,230000
1085,-81.801168023,27.3159260477,None,172573218,None
1086,-80.1643636278,26.8406698285,Ryder Substation,136809210,230000
1087,-80.2861267559,26.910817595,Alexander Substation,200532654,230000
1088,-80.1110307931,26.8822174541,Ross Substation,136957674,230000;24000
1089,-96.9486224388,46.8347652689,Fargo Substation,126003785,None
1090,-77.44702539,39.4030473299,None,63604156,None
1091,-77.2893592652,39.2407808047,Clarksburg Substation,53926430,None
1092,-77.4360578602,39.3624422465,None,53725300,None
1093,-77.4028400196,39.4195890205,None,55881279,None
1094,-77.3659733408,37.5156025562,Charles City Road Substation,96175554,None
1095,-77.4601072118,37.6168651251,Lakeside Substation,82221556,None
1096,-77.3456401894,38.9529544437,Reston Substation,59409859,None
1097,-77.4563485276,39.0260570866,Beaumeade Substation,59337974,None
1098,-121.517795635,39.454174188,None,150562248,None
1099,-79.7542642383,35.9414271646,Pleasant Garden Substation,67757520,None
1100,-80.2222386513,36.0114333798,None,162215857,None
1101,-79.7551621043,35.7238582018,Asheboro Substation,159559238,None
1102,-79.7824487156,36.1768824404,None,159455333,None
1103,-79.0164541096,36.0445840234,Eno Substation,121261538,None
1104,-87.0556663069,33.6305296534,None,164419150,500000
1105,-87.1966067968,33.6460876074,230kV substation,183946516,None
1106,-87.061244269,33.6311589052,"James H. Miller, Jr. Electric Generating Plant",420139937,None
1107,-86.803910139,33.5663248455,Boyles Substation,83913273,230000
1108,-86.8818354684,33.5172757538,None,182673797,230000;115000
1109,-120.126128239,36.1405189827,Gates,93251033,None
1110,-120.855611426,35.3738598872,Morro Bay,93420676,None
1111,-119.639366677,36.6106630918,McCall Substation,182604563,None
1112,-119.922582588,36.8448962479,Herndon Substation,164289720,None
1113,-119.452497183,35.4033459049,Midway,24333232,None
1114,-79.0683876517,43.811963443,None,43935197,None
1115,-79.0663718532,43.8100395769,Pickering Nuclear Generating Station,35125981,None
1116,-83.5936944976,31.0670863027,None,174466526,None
1117,-83.7434740397,31.2421774794,None,174466530,None
1118,-83.3767577035,30.8950796202,None,174404609,None
1119,-96.3050508188,42.6003162424,None,27051494,None
1120,-81.3242562413,28.977256944,None,382412257,230000
1121,-81.3370724928,28.7181329666,North Longwood Substation,75610877,None
1122,-81.411931925,28.6558248804,None,75611448,None
1123,-82.0857323113,29.1591466933,None,144353091,None
1124,-97.5787347085,43.055197817,Utica Junction Substation,138362040,None
1125,-98.5546966389,43.062958244,Fort Randall Substation,34110595,None
1126,-96.7695097352,42.7744641293,None,172986017,None
1127,-80.4088760314,27.0339259209,Indiantown Substation,103187946,230000
1128,-80.5122098061,27.0404790088,None,103187953,None
1129,-80.155377787,26.2790478302,Broward Substation,48742249,230000
1130,-96.8729684824,46.7741598746,Frontier Substation,126100976,None
1131,-96.6019090902,46.2887413064,Wahpeton Substation,126100983,None
1132,-96.8740878161,46.9175148876,None,139884254,None
1133,-80.5625031282,27.0577969368,Martin Power Plant,419594709,None
1134,-82.1496695021,33.3415822233,None,52020827,None
1135,-102.826878118,44.0719386348,New Underwood Substation,172844533,None
1136,-102.592162966,45.0076688477,Maurine Substation,172888028,None
1137,-100.390419099,44.4491840219,Oahe Substation,40155445,None
1138,-103.213815686,42.997280805,Wayside Substation,172879295,None
1139,-103.165228227,44.010318518,Rapid City DC Tie,121295145,None
1140,-96.888152962,46.1172129375,Hankinson Substation,128076413,None
1141,-85.0384944775,33.4092655308,None,180250120,None
1142,-99.3534322774,38.9286963128,Knoll Substation,171460116,None
1143,-99.3008996762,38.8284940557,None,171591232,None
1144,-84.8997054312,34.7599280641,None,53265941,None
1145,-112.317070092,33.4101446176,None,105031253,None
1146,-112.321556139,33.7070431227,Westwing Substation,105199141,None
1147,-111.940374418,33.7037080416,Pinnacle Peak Substation,386386478,None
1148,-111.940792418,33.7002933826,Pinnacle Peak Substation,386386479,None
1149,-84.2127343201,31.6351889157,None,171730466,None
1150,-84.2117005432,32.0976696477,None,163762723,None
1151,-96.8636932595,45.6456149787,None,138249763,None
1152,-96.5084343728,45.3019727566,None,138249765,None
1153,-96.4949756772,45.3058296329,Big Stone Plant,389614977,None
1154,-85.286946045,29.8113267409,Port Saint Joe Substation,197314089,230000
1155,-84.6082281965,30.0482581095,None,186847462,None
1156,-85.5631361596,30.1945339157,Callaway Substation,361097186,230000;115000;12000
1157,-92.8720299963,31.7142435893,None,187617959,None
1158,-93.0211240497,31.8418478614,Clarence Substation,187617949,None
1159,-84.4306071857,33.7792244928,None,51815986,None
1160,-84.4522012271,33.6904926767,None,179892665,None
1161,-82.5234990407,34.8280600397,Shady Grove Tap,120948277,None
1162,-82.4248239876,34.7606205147,Shady Grove Substation,185585802,None
1163,-97.8713116934,38.0948633753,None,157247030,None
1164,-98.8707707412,38.4067367907,None,170512120,None
1165,-75.8217804276,38.4900978732,None,68798018,None
1166,-91.003643811,30.5673450402,None,186844739,None
1167,-91.2451254132,30.6387680003,Port Hudson Substation,186844738,230000;138000;69000
1168,-90.8948580475,30.5644768476,None,186844754,None
1169,-119.088223983,36.9087765976,None,169507766,None
1170,-103.309871341,32.7318049563,None,183387719,None
1171,-102.250994447,32.0368035491,None,172246821,None
1172,-79.0020121099,43.9157373145,None,274712144,230000
1173,-79.1135394177,43.8520446722,Cherrywood Transformer Station,32963410,None
1174,-79.0630178508,43.8112820047,Pickering Nuclear Generating Station,24656911,None
1175,-91.1773599735,30.5532467344,None,186844753,None
1176,-91.3311010221,30.7452537205,Fancy Point Substation,139664489,None
1177,-90.9583749379,30.3009106362,None,186844755,None
1178,-112.187863991,33.4201150431,None,86377610,None
1179,-117.334503561,33.211426855,None,105825880,230000
1180,-111.037330871,33.3391737161,Silverking Substation,105903683,None
1181,-82.1091454862,33.3949459923,None,170166803,None
1182,-83.7531612068,33.9954852623,None,171583070,None
1183,-83.7578306969,34.0235159919,None,171583083,None
1184,-83.7526282504,33.9507251636,None,177612855,None
1185,-83.8152346558,33.9279771292,None,177612863,None
1186,-77.4832319506,38.304453832,Fredericksburg Substation,81094242,None
1187,-77.4276608115,38.031112595,Saint Johns Substation,96197171,None
1188,-77.5902480153,40.5803137888,Lewistown Substation,181134948,None
1189,-76.7237562925,40.2594850268,Hummelstown Substation,58744352,None
1190,-109.752855974,41.5500766202,South Trona Substation,159114855,None
1191,-109.520424356,41.5905509492,None,159115881,None
1192,-103.662845565,46.1662474084,Rhame Substation,173689823,None
1193,-118.806386666,46.037472167,None,169137888,None
1194,-119.313328813,45.9240155627,McNary Substation,56027291,None
1195,-83.7941369344,34.2049190915,None,171583084,None
1196,-83.7702993035,34.1063153146,None,171583079,None
1197,-76.1482245263,41.0923469429,Susquehanna Steam Electric Station,419480573,None
1198,-76.8276847799,40.8362411303,Sunbury Station,183642361,None
1199,-76.6655663244,41.0698231152,Montour Power Plant,419539160,None
1200,-76.1543729813,41.0909785484,None,117384822,None
1201,-75.9654936262,41.2646787298,None,117319566,None
1202,-75.5181201414,40.7131278604,Siegfried Substation,9529376,None
1203,-75.568973165,40.8129717525,None,183691714,None
1204,-102.862587186,48.408209039,None,159843952,None
1205,-103.732262376,48.1440162209,None,178495186,None
1206,-102.859715287,48.4077849389,None,159843959,None
1207,-103.035875106,49.0977201517,Boundary Dam Power Station,198187522,None
1208,-76.1495728366,41.0877976179,None,117384817,None
1209,-93.5546326722,45.2980981492,Elk River Substation,107726452,None
1210,-93.846218881,45.3309693757,None,106935619,None
1211,-93.3069563561,45.220813304,Bunker Lake Substation,24000744,None
1212,-104.679633933,39.9441715466,Barr Lake Substation,104351353,230000
1213,-104.768092905,39.8826450885,Reunion Substation,258687252,None
1214,-104.857299876,39.8823773192,None,105231952,None
1215,-104.918371761,39.8814559944,Riverdale Substation,105231951,230000
1216,-104.964022677,39.8085579002,Cherokee Generating Station,66366108,None
1217,-104.544446661,39.916611879,Green Valley Substation,104351355,230000
1218,-104.773272864,40.1003981236,Fort Lupton Substation,104303714,230000
1219,-104.7549572,40.0163300489,Henry Lake Substation,104636010,None
1220,-104.68343541,39.7417188556,Spruce Substation,104310533,230000
1221,-104.676367095,39.7923634273,Sky Ranch Substation,104313220,None
1222,-104.549957133,40.1070441958,None,248954238,None
1223,-104.595198421,40.0895647916,RMEC Substation,105107829,230000
1224,-77.5992030806,38.146775507,None,96290431,None
1225,-77.431255158,38.0292414612,Saint Johns Substation,96197173,None
1226,-87.4475121217,33.0443388492,Duncanville S.S.,103261824,None
1227,-86.9933157782,32.5130667549,North Selma Substation,186161700,None
1228,-123.851479685,46.9794625903,None,41772678,None
1229,-123.464084704,46.9680858748,Satsop Substation,41772672,None
1230,-77.7932654203,40.8263969702,None,181134983,None
1231,-77.7869121114,40.9406147169,Milesburg Substation,181134950,None
1232,-77.8368322691,40.759875422,Shingletown Substation,38556629,None
1233,-80.2869890667,26.0015573287,Hollybrook Substation,170092175,230000;24000
1234,-99.9661824978,48.4864661589,None,183932125,None
1235,-99.9579225192,48.3516348759,None,183879407,None
1236,-97.4099560342,41.4562784455,Columbus West Substation,141269533,None
1237,-97.3370118932,41.5309065128,None,144594678,None
1238,-97.8955276941,47.1236774704,None,151504552,None
1239,-97.8953724153,47.1249289847,None,151504554,None
1240,-97.8313649211,47.2127663825,None,151504553,None
1241,-97.8947637322,47.3297793869,None,151517323,None
1242,-123.264650501,42.9161214701,None,181388978,None
1243,-123.410285006,42.9311775958,Nickel Mountain Substation,181388953,None
1244,-76.6769032186,39.0459502455,Waugh Chapel Substation,53786477,500000;230000;115000
1245,-96.2351579991,43.3969485484,None,173549244,None
1246,-123.231807265,44.0508588329,Lane Substation,99002047,None
1247,-124.010772993,44.007467209,Wendson Substation,100586555,None
1248,-87.4842871671,33.1280617662,Bradley Road D.S.,103261888,None
1249,-87.5174872238,33.1698856437,South Tuscaloosa T.S.,103261929,None
1250,-112.679025476,30.8026037277,None,120343539,None
1251,-112.207562286,30.7123395593,None,340709530,None
1252,-110.413956642,31.0166518611,None,338815210,None
1253,-110.298616628,31.0043429248,None,193506175,None
1254,-107.824641069,41.6500525638,Echo Springs Substation,170763978,None
1255,-108.524258543,41.6160641422,Bitter Creek Substation,170686978,None
1256,-89.908998939,30.7902949548,None,186589475,None
1257,-82.8211728715,34.3411567481,None,52408419,None
1258,-114.995752849,36.0410818483,None,188303069,None
1259,-114.998856069,36.0383870238,None,106522436,None
1260,-122.83091242,45.4380102831,MurrayHill Substation,51541608,None
1261,-114.998055028,36.0404461019,None,188303072,None
1262,-89.1016684088,31.6907966671,None,186570753,None
1263,-89.3536897092,31.2815221316,Hattiesburg Southwest Substation,106780294,None
1264,-88.8347856366,32.163444354,None,186580858,None
1265,-74.9295759057,40.3372401826,Pleasant Valley Substation,95831787,None
1266,-74.7421820276,40.5443497987,Branchburg Substation,42092946,500000;230000
1267,-90.0052841694,30.3511491238,None,186600585,None
1268,-90.0470930303,30.4135383622,None,39590485,None
1269,-89.7810170773,30.3146851173,None,186591255,None
1270,-114.420645905,42.8357883456,Midpoint Substation,102794997,None
1271,-114.232518166,42.6327398821,Hunt Substation,162934427,230000;138000
1272,-116.158260107,43.5591073988,Boise Bench Substation,53130516,None
1273,-116.141003201,43.5255038679,None,167291893,None
1274,-115.604149314,43.1772821373,None,167284671,None
1275,-107.002552378,44.7346947804,None,171239039,None
1276,-106.941826957,44.8278597185,Sheridan Substation,170400062,None
1277,-81.5191985351,29.8697727566,Tocoi Substation,380094207,230000
1278,-81.3500527416,29.8563811156,St. Johns Substation,252573956,230000;115000
1279,-76.8057401561,38.713867429,Talbert Switching Station,64882304,None
1280,-76.8709366183,38.7383831499,Surrattsville Substation,64880459,500000
1281,-104.732199882,39.7515667334,Picadilly Substation,82967249,None
1282,-104.766690413,39.7683182938,Tower Substation,104310529,None
1283,-104.680090966,39.7437096123,Blue Spruce Energy Center,255095311,None
1284,-104.71492354,39.6307444356,Smoky Hill Substation,364720575,230000
1285,-86.6210302866,31.8012427115,None,185898625,None
1286,-87.1080896717,31.422461111,None,185904487,None
1287,-90.2733944747,30.0420635971,University City Substation,215115535,230000
1288,-90.1936025355,30.427816462,None,186595242,None
1289,-82.7340823626,27.7714412295,None,191145747,230000;115000
1290,-82.7019441039,27.77046257,51st Street Substation,192528747,230000;115000
1291,-82.706794482,27.8913469039,None,188823953,230000
1292,-82.7728001646,27.9135606177,Largo Substation,192264529,230000
1293,-81.2093414601,34.0530413589,None,185149204,None
1294,-105.464780498,44.3919315498,Dry Fork Substation,171175454,None
1295,-105.385430747,44.2910165726,Wyodak Substation,170357131,None
1296,-121.263891896,38.7634533525,Atlantic Substation,30410527,230000;115000;60000;12000
1297,-121.136832765,38.6575574183,Gold Hill Substation,32050965,None
1298,-78.2279546336,42.6698422268,None,146647696,None
1299,-80.3144053553,25.8848735727,Gratigny Substation,48830739,230000;138000
1300,-80.3122347948,25.855760424,Roselawn Substation,376950008,230000
1301,-84.2521027632,32.2612956215,None,171730740,None
1302,-84.2897462399,32.5710446693,None,170999705,None
1303,-81.7670348852,35.2197851408,Cliffside Substation,120956731,None
1304,-81.5441317205,35.2578032179,Shelby Tie Substation,121166903,None
1305,-114.834686474,35.9278066939,Mead,79734755,None
1306,-115.003411334,36.0401212074,None,188303070,None
1307,-115.012941011,35.8039244119,McCullough Substation,79671032,None
1308,-78.8277133105,35.750459675,None,167147550,None
1309,-78.8256244479,35.7620297553,None,167147540,None
1310,-78.8125032991,35.724930296,None,32248243,None
1311,-75.6649000642,39.9686940264,None,89581391,None
1312,-76.1750453074,39.6575277924,Conowingo Hydroelectric Station,67883260,None
1313,-75.8300589618,39.971040307,None,95967138,None
1314,-121.890127354,47.8973210155,Monroe Substation,34088792,None
1315,-122.011153128,47.6879287974,Novelty Hill Substation,40793898,None
1316,-122.113026495,47.97169169,Horse Ranch Substation,39337952,230000
1317,-122.103980727,47.9239673588,Snohomish Substation,40421260,None
1318,-75.9104634894,36.3310440017,None,186248164,None
1319,-75.7001271018,36.0665468948,None,186248148,None
1320,-90.1641977594,32.2616083615,None,138626912,None
1321,-90.1878147646,32.2807305152,South Jackson Substation,138604484,230000
1322,-118.459996883,34.0331934658,None,267159397,230000
1323,-118.488359055,34.0681808765,None,184909077,230000
1324,-118.371054212,34.0381025339,None,393475144,230000
1325,-120.584161816,36.6517444549,None,181864309,None
1326,-110.98652319,41.299664596,Railroad Substation,169158520,None
1327,-111.109484621,41.5352105556,Birch Creek Substation,104394709,None
1328,-82.0638557537,27.0424495671,Peachland Substation,224059711,230000
1329,-82.1583400556,27.0901716369,None,385259845,230000
1330,-82.0352996917,27.0182043001,Deepcreek Substation,205146065,230000;24000
1331,-100.885123318,48.0214875904,None,59338421,None
1332,-121.695189863,37.6934242592,None,24283011,None
1333,-121.580220289,37.7978290289,Tracy,24049455,None
1334,-82.4306630591,27.3579668172,None,224059713,None
1335,-122.101078798,47.924550519,None,40421261,None
1336,-122.083420117,48.154366743,Murray Substation,102717706,None
1337,-121.641776944,48.2729684002,None,51783889,None
1338,-121.242370233,48.6744112726,None,51791890,None
1339,-121.141920839,48.7155033256,None,51075087,None
1340,-75.6094484014,41.4970158554,Lackawanna Substation,146786816,None
1341,-80.2966634835,26.1215912184,None,379504532,230000
1342,-80.3210783105,26.0943739521,Valencia Substation,379504542,230000;24000
1343,-80.3869979026,26.116050469,Trace Substation,169917022,230000
1344,-82.4983717188,28.5751252752,Brookridge Substation,149817252,500000;230000
1345,-82.6965246949,28.9619644367,Crystal River Power Plant,403198407,None
1346,-82.65458134,28.058540493,Lake Tarpon Substation,84283181,500000;230000
1347,-77.2887429228,38.7236183934,Ox Substation,45844397,None
1348,-77.1937844026,38.7390923364,None,232289062,None
1349,-77.2236699116,38.8218474403,Braddock Substation,107944354,None
1350,-103.569943829,25.4924362029,None,373671863,None
1351,-103.308597542,25.454730123,None,147507817,None
1352,-109.019643035,25.9765678505,None,324339641,None
1353,-109.076318944,25.7848472652,None,106920584,None
1354,-75.2558237198,40.7103430388,None,95668163,None
1355,-75.3492383394,40.6226358481,Quarry Substation,44641720,None
1356,-80.3376718723,25.7054217347,Galloway Substation,167823300,230000;138000
1357,-84.9493074272,32.6712758986,None,163891145,None
1358,-84.9744910581,32.8231482897,None,163891150,None
1359,-95.5905077752,38.8421840452,Swissvale Substation,164761243,345000;230000
1360,-103.702071586,39.2037681212,Lincoln Substation,170793975,None
1361,-103.641460564,39.3009692653,Big Sandy Substation,170793970,None
1362,-104.68972356,38.5609098024,Midway Substation,104066138,230000
1363,-84.9664688623,33.0243666801,None,171039369,None
1364,-105.089697756,39.7895391703,Russell Substation,105692139,None
1365,-84.9075647278,33.3516363091,None,163891152,None
1366,-84.5338259635,33.3256813132,None,163891160,None
1367,-84.9097292185,33.3702703338,None,163891164,None
1368,-84.896527389,33.4611860345,None,171166735,None
1369,-85.0156689306,33.0240817565,None,171039366,None
1370,-85.0379699108,33.4029207346,None,171146722,None
1371,-110.829340256,28.9302667459,None,338968479,None
1372,-84.0787184505,33.6624567083,None,175826906,None
1373,-84.0427471991,33.6976582817,None,175826912,None
1374,-84.000622501,33.7490554376,None,175826907,None
1375,-83.8823735803,33.8681661223,None,175826909,None
1376,-83.6948631278,33.813647848,None,176896777,None
1377,-77.5046725551,37.4086360129,Iron Bridge Substation,80783327,None
1378,-77.5415481853,37.6306289424,Northwest Substation,82222805,None
1379,-109.243112768,41.6307188432,Rock Springs Substation,156355343,None
1380,-109.347098183,41.0643825845,Little Mountain Substation,171531455,None
1381,-114.743302187,36.0159993225,None,79792360,None
1382,-114.743101826,36.0178808534,None,79792367,None
1383,-114.96675752,34.8448897098,None,64083268,None
1384,-114.796003438,35.9792934706,None,79792338,None
1385,-114.975597517,35.9866706553,None,79801819,None
1386,-115.031278704,36.0355127191,None,82362021,None
1387,-115.121492445,34.1503735877,None,93581443,None
1388,-89.6677956553,33.0121067934,None,186951652,None
1389,-71.3229151581,46.7830468312,Poste de La Suète,104089577,None
1390,-71.3144346886,46.8585051069,Poste des Laurentides,27736159,735000
1391,-71.2628453632,46.8313565202,Poste de Québec,104084354,None
1392,-71.2948212949,46.6997971284,None,143914257,None
1393,-106.33187251,43.4500306682,Midwest Substation,170297324,None
1394,-106.558585627,43.7035833543,Kaycee Substation,170297325,None
1395,-106.653220333,44.3546110939,Buffalo Substation,170298745,None
1396,-84.4634677126,33.6759271245,None,171173870,None
1397,-84.5262335304,33.6143585479,None,159784551,None
1398,-84.5237958829,33.5857756512,None,159784560,None
1399,-84.5094709735,33.5533676539,Union Substation,159758306,None
1400,-84.6156246017,33.6856425191,None,180122985,None
1401,-84.4985409737,33.7491787953,None,180059926,None
1402,-80.7017555518,35.0975939692,None,159098876,None
1403,-81.6490594655,34.2523196231,None,185168619,None
1404,-81.3309458448,34.2671077055,Parr Substation,185144870,None
1405,-79.7599866635,42.1965690699,None,166062068,None
1406,-79.8357611763,42.1657523973,None,176046713,None
1407,-80.0146847855,32.8500435311,None,217507829,None
1408,-80.0702808222,32.8303132372,None,185330726,None
1409,-80.0852406472,32.9380526796,None,184867939,None
1410,-115.738139281,47.9594490626,Noxon Substation,94316202,None
1411,-115.307078973,48.3947548781,None,91575544,None
1412,-81.8060765005,33.5835853784,None,185250133,None
1413,-81.9103392878,33.4330319915,None,170166769,None
1414,-93.1798741126,31.9794188928,Messick Substation,165788672,None
1415,-93.1723654086,31.9058924778,None,187625957,None
1416,-79.0276639543,43.1399852285,None,118097924,None
1417,-78.7159583268,43.1380822528,Robinson Road Substation,146665131,None
1418,-73.493421765,44.7592982005,Plattsburgh Substation,175766529,None
1419,-74.1186468481,44.8891145021,Willis Substation,175766583,None
1420,-81.4559446851,28.5784701123,Woodsmere Substation,76171272,None
1421,-81.4552077636,28.6728821218,Piedmont Substation,75778493,None
1422,-81.4546818878,28.6229904231,None,76167122,None
1423,-81.4548018482,28.4837569223,Windermere Substation,47427308,None
1424,-121.935624384,40.8080005835,Round Mountain,93128718,None
1425,-74.1581809289,40.8616176756,Athenia Substation,95201299,None
1426,-74.2214659741,40.8683711806,Cedar Grove Substation,95212498,230000
1427,-74.0718331101,40.7473984259,PSE&G Hudson Generating Plant,281165325,None
1428,-93.2008324149,30.3308127377,None,167651349,230000
1429,-93.2339059049,30.3295400082,Moss Bluff Substation,165477519,230000
1430,-81.036292864,36.1764018193,Antioch Substation,108333086,None
1431,-80.7829276782,36.2614751443,Mitchell River Substation,162320164,None
1432,-81.1104493904,36.1772521772,None,162622724,None
1433,-75.1085761021,40.8003815825,Martins Creek Substation,95656880,None
1434,-75.0597965398,41.0604384317,Shawnee Substation,180628930,None
1435,-75.1714831123,40.9803164661,None,183679586,None
1436,-75.1702098223,40.9819334908,None,183679571,None
1437,-76.4415565572,40.7286768044,None,183785852,None
1438,-76.245384093,40.7774396838,Frackville Substation,183642359,None
1439,-88.5138065911,30.4125743465,None,186370095,230000
1440,-122.381718781,40.3831912585,Olinda Substation,93128776,None
1441,-121.497947513,40.9912228981,None,177592878,None
1442,-83.6987948336,33.8379123886,None,176906118,None
1443,-79.3557226556,43.7031799272,Leaside Transformer Station,43812935,None
1444,-79.2711416636,43.7469496993,Scarborough Substation,35836190,None
1445,-76.820276946,38.9600619682,Buena Vista Substation,64718920,None
1446,-76.7692413961,39.0156003419,Jericho Park Substation,62173560,None
1447,-79.5294801313,44.0655644746,None,275163222,None
1448,-79.364775546,44.2252171846,None,169867488,None
1449,-79.5312144396,44.0754872561,York Energy Centre,247885747,None
1450,-81.8166169844,30.3841490062,West Lake Substation,166791258,230000
1451,-81.5507470195,30.431009491,Saint John's River Power Plant,419594711,None
1452,-81.8197720298,30.3066733654,Normandy Substation,166776124,230000;138000;26400
1453,-81.7654091266,30.2232860325,Firestone Substation,166791261,230000;138000;69000
1454,-81.81863688,30.2244815046,JAX Heights Substation,166791302,230000
1455,-81.5497784204,30.4182619368,Northside Substation,166791262,230000;138000
1456,-81.554023294,30.4217502922,None,224445350,None
1457,-81.4889297957,30.3605155121,Fort Caroline Substation,132665891,230000;138000
1458,-91.110386445,30.2768429027,Willow Glen Substation (230kV),139454561,230000
1459,-91.0666911049,30.229975166,None,186845578,None
1460,-121.78388077,42.1985956227,Klamath Falls Substation,168003305,None
1461,-107.687498305,45.7629062956,None,90523754,None
1462,-107.952574044,45.3087140638,None,170405635,None
1463,-107.504766936,46.1239871775,Custer Substation,137830202,None
1464,-108.175168641,45.7827569449,None,183178948,None
1465,-103.227911849,44.0249220813,South Rapid City Substation,171731053,None
1466,-103.501919069,43.4345448863,None,171731055,None
1467,-104.266328037,46.3839950055,Baker Substation,173697138,None
1468,-105.791781935,46.4125746433,Miles City Substation,137868388,None
1469,-112.454448011,34.602607831,None,168292258,None
1470,-112.030015564,34.8466137431,None,182143658,None
1471,-112.229444539,34.7565008459,None,105780281,None
1472,-112.055199955,33.83798041,None,83115914,None
1473,-113.363345171,35.1925168718,None,157616671,None
1474,-77.7971986366,38.0611888152,North Anna Substation,82511995,None
1475,-78.2030752421,38.1246827894,South Anna,149931756,None
1476,-84.2016374808,30.1882304989,None,173711192,None
1477,-82.7799786876,29.9532611563,Fort White Substation,160286849,230000;115000;69000
1478,-108.762400999,42.5249902332,Atlantic City Substation,122792698,None
1479,-108.229385296,43.6500370098,Thermopolis Substation,167146833,None
1480,-81.5544891652,30.4343524932,None,166791301,230000
1481,-81.8393404658,30.1044803139,Black Creek Substation,102952837,230000;138000;115000
1482,-83.559333987,30.1187527951,Perry Substation,160286861,230000;69000
1483,-83.1829128446,30.3714961274,None,173711181,None
1484,-83.6037793369,30.1615740032,None,173711191,None
1485,-117.026027291,46.4310411276,North Lewiston Substation,98830485,None
1486,-116.910380081,46.4690686436,Hatwai Substation,98830488,None
1487,-117.116405079,46.3808390621,Dry Gulch Substation,169066260,None
1488,-116.915376587,46.3568995326,Lolo Substation,169486726,None
1489,-117.141417615,47.6968052335,Boulder Park Substation,94313708,None
1490,-119.370292628,45.8038506713,Hermiston Generating Project,323391204,None
1491,-119.297612945,45.9339283947,McNary Powerhouse,422872606,None
1492,-119.634478521,45.9337780473,None,56323697,None
1493,-122.674442416,44.7724685284,Santiam Substation,54717885,None
1494,-90.5952685957,30.0685890853,None,186706076,None
1495,-90.5343030582,30.0700828865,None,186706080,230000
1496,-90.5891035574,30.0611893614,None,186706086,230000
1497,-90.6725078057,30.0743795698,None,186706087,None
1498,-74.9627557908,39.7410004366,New Freedom Substation,95131944,None
1499,-75.4052212097,39.7931490205,None,102033582,None
1500,-75.4243014189,39.7676330182,Pedricktown Substation,102135174,None
1501,-114.904113553,36.4254010351,None,71837876,None
1502,-114.635490521,36.6572130605,None,87886534,None
1503,-114.830306976,36.4822454237,None,71834330,None
1504,-115.096302522,36.2746634381,Pecos Substation,130771397,None
1505,-115.208232919,36.3225809821,Iron Mountain Substation,166551122,None
1506,-83.1807306635,30.3754413008,None,174398667,230000
1507,-116.734129748,44.5911750058,None,167378064,None
1508,-116.896615752,44.8401470278,Brownlee Substation,167377989,None
1509,-90.2769785604,29.9770832847,Kenner Substation,139593941,230000
1510,-102.525020353,38.2068519918,Lamar Substation,163973338,230000
1511,-85.8939383723,30.2490482984,Laguna Beach Substation,160206601,230000;115000;12000
1512,-85.7000584484,30.2698826649,Smith Substation,224445360,230000;115000;12000
1513,-120.21848502,46.3011638035,Alfalfa Substation,102148322,None
1514,-120.079362716,46.3752960325,Outlook Substation,73300347,None
1515,-120.45319742,35.0084134372,Mesa,182102249,230000
1516,-76.5069260572,41.0023275356,Columbia Substation,183642349,None
1517,-119.588248972,46.5803291989,None,57706738,230000
1518,-76.4009630164,37.0579926053,None,81512694,None
1519,-76.3670501852,37.0299269896,None,81509470,None
1520,-76.9919508312,41.168618023,Elimsport Substation,183670546,None
1521,-104.569688543,23.9644537738,None,120340864,None
1522,-104.4791373,24.2298922191,None,325267285,None
1523,-104.605608573,24.076385979,None,120066877,None
1524,-82.5824991553,28.0008530258,Sheldon Road Substation,113527049,230000;69000
1525,-82.5913325282,28.0402198282,Sheldon Road Substation,145582607,230000;69000
1526,-118.808280054,46.0373990429,None,169137879,None
1527,-118.588192646,45.9029436749,None,169798774,None
1528,-121.02076937,37.0532597183,Los Banos,23988495,None
1529,-121.075421808,37.0666512386,None,181864356,None
1530,-93.8792346348,30.0244290854,None,337944611,230000;138000
1531,-93.9253401348,29.9074555292,Hanks Substation,338385059,230000
1532,-94.719516237,46.8758014417,Badoura 230/115 KV Substation,175876393,230000;115000
1533,-82.8778941671,31.5308090357,Douglas Substation,103123243,None
1534,-83.1808125039,31.5366639538,None,174534089,None
1535,-82.3475758878,31.934343388,None,160308126,None
1536,-82.6817086086,31.4120762663,None,174575937,None
1537,-81.9554515142,35.643654637,McDowell Substation,185567532,None
1538,-113.597188478,47.1347121109,None,183053924,None
1539,-85.9722183278,33.5865590766,None,186427711,230000;115000
1540,-86.4590549539,33.2448171859,Plant Gaston Substation,171170605,None
1541,-85.8583723415,33.6504696545,Anniston Substation,186427715,230000
1542,-85.3456265859,34.2512231947,Hammond Station,186429831,None
1543,-85.8587351972,33.6520303564,None,186427701,None
1544,-104.909145701,39.6288017202,None,105108405,230000
1545,-122.208309215,37.9055194737,Sobrante Substation,33106247,None
1546,-81.9551678937,28.8168903073,Central Florida Substation,47475022,500000;230000;69000
1547,-81.4669595317,28.4914085976,MetroWest Substation,47475034,None
1548,-81.635155295,28.484315577,Avalon Substation,47475036,None
1549,-122.36725078,47.0918068859,None,168635260,None
1550,-122.95315937,47.0010510183,Olympia Substation,41736799,None
1551,-98.3297452309,43.9027903084,None,86896203,None
1552,-97.1384352177,43.7164964542,None,86882469,None
1553,-97.9685460496,43.8492137936,None,138350710,None
1554,-98.9566628075,43.600967181,Lake Platte Substation,172955984,None
1555,-84.7689095997,34.0185952664,None,175000633,None
1556,-84.7856577989,34.004127996,None,175000632,None
1557,-112.262440369,33.8163905723,Morgan Substation (TS-9),105780277,None
1558,-112.273467861,33.8023302407,None,102757784,None
1559,-111.913212928,33.4250844124,Ocotillo Power Plant,30408669,None
1560,-87.2268358575,30.5641454787,Crist Substation,363655569,230000
1561,-87.2711990427,30.6003683265,None,186076839,None
1562,-87.2578983102,30.4658126392,Brentwood Substation,133234575,230000;115000;12000
1563,-87.2256672414,30.5649955216,James F. Crist Generating Plant,92357950,None
1564,-84.785726105,33.9614249166,None,175000637,None
1565,-84.7402501596,33.9717696819,None,175000623,None
1566,-83.5833177056,32.4845686795,None,177850741,None
1567,-83.6026977568,32.4851352629,None,177850744,None
1568,-83.5627977128,31.9865905074,None,177843299,None
1569,-121.316627378,42.0064537948,Malin,93984381,None
1570,-122.071609204,42.0937684556,None,181548170,None
1571,-78.5578826341,35.938382203,None,75467319,None
1572,-121.90087827,37.2336890768,Hicks Substation,112568707,None
1573,-121.74416386,37.2255769023,Metcalf Substation,23805620,None
1574,-121.966197831,37.2538357643,Vasona Substation,114958126,230000
1575,-116.850175509,44.9704208302,Oxbow Substation,101121557,None
1576,-116.858762206,44.9858758488,None,101121560,None
1577,-86.8163071728,33.3309845817,None,182880649,None
1578,-86.842011472,33.472239579,Magella Substation,183106625,230000
1579,-76.1575604018,36.779458439,Stumpy Lake Substation,80763970,None
1580,-76.2402416743,36.7591977157,Thrasher Substation,80763433,None
1581,-74.3307716851,40.8200463026,Roseland Substation,94783939,230000;138000
1582,-74.6153039516,40.5589805163,None,94783955,230000
1583,-74.4852915207,40.4055331727,Deans Substation,94761499,500000;230000
1584,-79.7585522829,34.9038906721,Rockingham Substation,159607213,None
1585,-80.1675806786,34.4176449002,None,159607197,None
1586,-80.1668286605,34.430433225,None,159607198,None
1587,-80.3193708377,34.3885956907,None,185012269,None
