n_id,longitude,latitude,type,voltage,frequency,name,operator
142437894,-73.8249225339,42.7312322857,substation,115000,60,Sand Creek Substation,
141691304,-73.8026588454,42.7194502111,substation,115000,60,Wolf Road Substation,
139587105,-73.9974872674,42.8288448074,substation,230000-115000,,Rotterdam Substation,Niagara Mohawk
382635285,-73.9325957858,42.7614486735,substation,115000,60,Curry Road Substation,
127251975,-73.7576439924,42.6434044381,substation,None,,,
358724049,-73.7653012289,42.6271824972,substation,115000,60,,
141717004,-73.8286816301,42.835090665,substation,115000,60,Grooms Road Substation,
139791029,-73.7433093953,42.7647225815,substation,115000,60,Johnson Road Substation,
86472973,-73.7678759334,42.7636604974,substation,115000,60,,
140102686,-73.6748773872,42.8149938088,substation,115000,60,,
140090481,-73.7515873578,42.8231701422,substation,115000,60,,
144051878,-73.9013271077,42.831403543,substation,115000,60,Rosa Road Substation,
107378786,-73.9413830589,42.8213352468,substation,115000,60,Front Street Substation,National Grid
382635282,-73.9957314033,42.7099004369,substation,115000,60,Altamont Substation,
374864619,-73.9356919472,42.6479332634,substation,115000,60,Voorheesville Substation,
140111530,-73.904272079,42.6091284475,substation,345000,,New Scotland Substation,
189151692,-73.9654190197,42.8077972739,substation,115000,60,General Electric Substation,
125083175,-74.1752017962,42.9375000286,substation,115000,60,Church Street Substation,
188996039,-74.1449882468,42.9172718701,substation,115000,60,,
139286063,-73.4462010043,42.841417387,substation,115000,60,Boyntonville Substation,
139286065,-73.637182166,42.7870115659,substation,115000,60,North Troy Substation,
139286064,-73.3574131985,42.9121005835,substation,115000,,Hoosick Substation,
139271279,-73.1721768841,42.8820564631,substation,115000-69000,60,Bennington Substation,
176702521,-73.8328003298,41.7409795306,substation,115000,60,,
86251100,-73.8342742176,41.7396280591,substation,345000,,Pleasant Valley Substation,ConEd
310702004,-73.7426412323,42.1932714743,substation,115000,60,Churchtown Substation,NYSEG
252709854,-73.714542113,42.5489431416,substation,115000,60,Schodack Substation,
140369125,-73.7148381713,42.6057963826,substation,115000,60,Greenbush Substation,
141049525,-73.4121753874,43.4607651799,substation,115000-34500,60,Comstock Substation,NYSEG
141049532,-73.605866841,43.2901164608,substation,115000,,Mohican Substation,
306310213,-73.8256219398,42.6611506095,substation,115000,60,Krumkill Substation,
86356092,-73.842913729,42.6839786295,substation,115000,60,McKownville Substation,National Grid
86299729,-73.8417728166,41.5972102826,substation,115000,60,Fishkill Plains Substation,NYSEG
308332182,-73.7219875594,41.5949743042,substation,115000,60,Sylvan Lake Substation,NYSEG
86220650,-73.8348673419,41.5681058024,substation,345000,60,East Fishkill Substation,
86220645,-73.937867486,41.5643517837,substation,115000,60,,NYSEG
137725010,-73.7479841789,42.964088583,substation,115000,60,,National Grid
162320042,-73.7570675553,42.9732929882,substation,115000,60,,
138286433,-73.6830233551,42.9239099991,substation,115000-34500,60,Mulberry Substation,NYSEG
139210346,-76.5186548153,43.439590382,substation,None,,,
419984184,-76.5313335257,43.4570241999,substation,None,,,
383498363,-73.701818389,41.3979877754,substation,115000,60,Carmel Substation,NYSEG
383498368,-73.6689804872,41.3543453642,substation,115000,60,Croton Falls Substation,NYSEG
382687510,-73.8356622142,42.6921364815,substation,115000,60,,
60816523,-73.6870355045,41.2765676102,substation,115000,60,Katonah Substation,NYSEG
314056862,-73.7717331355,41.2853827376,substation,115000,60,Armawalk Substation,NYSEG
150215827,-76.5906100229,42.9262122426,substation,115000-34500,60,Wright Avenue Substation,NYSEG
109485721,-76.5777109058,42.9519706509,substation,115000-34500,60,State Street Substation,NYSEG
382666388,-73.6538348372,42.1852335438,substation,115000,60,,
382666391,-73.6531879677,42.1828352513,substation,115000,60,,
86249379,-73.7942522598,41.3700683183,substation,None,,,
140649634,-73.8615663155,42.5751366796,substation,115000,60,,
322536214,-73.8591912239,42.5752456862,substation,None,,,
140369137,-73.87850209,42.8346335532,substation,115000,60,General Electric Research & Development Substation,
140369134,-73.865145117,42.7893521803,substation,115000,60,Inman Road Substation,National Grid
168747175,-75.2246449158,43.1530532079,sub_station,None,,Porter Substation,Niagra Mohawk
107706686,-75.2272075696,43.1573988936,substation,345000,,Edic Substation,Niagra Mohawk
189470672,-75.2588346563,43.2107238738,sub_station,None,,,
189470427,-75.2709293971,43.1412948879,sub_station,None,,,
162320041,-73.7564382109,42.9725699947,substation,None,,,
139791683,-73.7084533347,42.745419132,substation,115000,60,Maplewood Substation,
142738636,-73.7691481925,42.695258284,substation,115000,60,Everett Substation,
175668432,-76.110862202,42.7905755205,substation,None,,,
189677941,-76.1621662817,42.5913640847,substation,None,,,
81411053,-73.6874893918,42.6727313725,substation,345000-115000,60,Reynolds Substation,National Grid
105014766,-73.7310683818,42.6853456339,substation,115000-34500,60,Menands Substation,National Grid
86301905,-76.4058129998,42.4722133562,sub_station,None,,Etna Substation,
389629671,-76.6335591524,42.6031667364,plant,None,,Cayuga Power Plant,AES
79211814,-74.1968684167,41.467734877,substation,345000,,Rock Tavern Substation (345kV),Central Hudson Gas & Electric
79211815,-74.1945048711,41.4674203387,substation,115000,,Rock Tavern Substation (115kV),Central Hudson Gas & Electric
112381234,-78.7682400043,42.8518333394,sub_station,None,,Gardenville Substation,New York State Electric & Gas
92967236,-78.5810487149,42.8326653129,substation,None,,Stolle Road Substation,
107706683,-76.1713077738,43.1980012339,substation,None,,Clay Substation,Niagra Mohawk
156364735,-76.0433815563,43.0478726974,substation,None,,,
139211589,-73.6288251992,42.6866466639,substation,115000-34500,60,Wynantskill Substation,NYSEG
167882582,-79.197450917,43.1425450411,sub_station,None,,Glendale TS,
164091213,-79.0455397497,43.1488175503,generator,None,,Sir Adam Beck GS 1,
140644695,-73.2331093552,43.5761683813,substation,None,,Blissville Substation,
140644696,-73.38021938,43.5502744773,substation,115000,,Whitehall Substation,
167882585,-79.0859439768,43.1216749297,sub_station,None,,Stanley TS,Hydro One
382751897,-73.9545993369,43.0373881356,substation,115000,60,West Milton Substation,
142855863,-73.7536783845,43.2347615783,plant,None,,Spier Falls Hydropower Plant,Brookfield Power Co.
176696225,-73.9864138072,41.5915029217,substation,115000,,,
176696227,-73.9654053608,41.5732704941,substation,115000,,,
383110528,-73.8621962756,40.7402107553,substation,138000-27000,60,Corona Substation,Consolidated Edison
187984305,-73.813907447,40.6991852404,substation,138000-27000,60,Jamaica Substation,Consolidated Edison
83181826,-73.0382999961,40.9238179884,substation,None,,Mount Sinai Substation,
83173917,-73.0726563802,40.8206475689,substation,None,,Holbrook Substation,Long Island Power Authority
83179368,-72.9332485971,40.949640798,substation,None,,North Shore Beach Substation,PSEG Long Island
83376772,-73.1085361043,40.8167224067,substation,None,,Ronkonkoma Substation,
383102725,-73.8637421137,40.8425216372,substation,345000-138000,60,Tremont Substation,Consolidated Edison
276057439,-73.8933140648,40.849448543,substation,138000-13200,60,East 179th Street Substation,Consolidated Edison
83345297,-73.2874388212,40.8292912179,substation,138000-69000,,Pilgrim Substation,Long Island Power Authority
83202875,-73.4185700148,40.7624399057,substation,138000-69000,,Ruland Road Substation,Long Island Power Authority
49392092,-73.3415394147,40.9215542555,plant,None,,Northport Power Station,National Grid USA
383102723,-74.0026788035,40.6620646499,substation,345000-138000,60,Gowanus Substation,Consolidated Edison
374846762,-73.9937814101,40.6592911334,substation,138000-27000,60,Greenwood Substation,Consolidated Edison
83277332,-73.6113373628,40.7302383517,substation,None,,East Garden City Substation,Long Island Power Authority
83257244,-73.6228970675,40.7468214672,substation,138000,,Carle Place Substation,
262771815,-73.6426191024,40.7762720059,substation,None,,,
83477308,-73.0655429075,40.8169219479,substation,None,,Holtsville MGU,
383110533,-73.9099520342,40.7991168412,substation,138000-13200,60,Hell Gate Substation,Consolidated Edison
108318934,-73.9092012223,40.7877349976,substation,138000,60,,
175926049,-73.9933736074,41.2031895877,sub_station,None,,,
383474548,-74.0281303505,41.1440035223,substation,138000,60,,
83205538,-73.6466325064,40.8280870481,substation,None,,,
83207901,-73.6440170913,40.7838779703,substation,138000,,Roslyn Substation,
249107547,-73.9759290425,40.6215696402,substation,138000-27000,60,Bensonhurst Substation,Consolidated Edison
329210247,-73.7721594486,41.0337377885,substation,138000,60,White Plains Substation,Consolidated Edison
188839535,-73.8090262678,41.0499849056,substation,345000-138000,60,Eastview Substation,
383110531,-73.7402212282,40.9821413826,substation,138000-13200,60,Harrison Substation,Consolidated Edison
275282973,-73.9066697346,40.8078029904,substation,345000-138000-13200,60,Mott Haven Substation,Consolidated Edison
271609420,-73.9365562843,40.8077460764,substation,138000-13200,60,Parkview Substation,Consolidated Edison
83238706,-73.4611760937,40.7310694273,substation,None,,Bethpage Substation,Long Island Power Authority
83240792,-73.5408479371,40.7328404446,substation,138000-69000,,Newbridge Road Substation,Long Island Power Authority
269233461,-73.9880882618,40.7758380053,substation,138000-13200,50,West 65th Street Substation,Consolidated Edison
188367030,-73.9958838793,40.766002992,substation,345000,60,West 49th Street Substation,Consolidated Edison
83530294,-73.4257309445,40.8412163695,substation,138000,,Oakwood Substation,
83527142,-73.3873933762,40.8597643482,substation,138000-69000,,Greenlawn Substation,
83647802,-73.6851487394,40.6650536493,substation,138000,,Valley Stream Substation,Long Island Power Authority
83892825,-73.6479436929,40.6185853574,substation,138000,,,
383474551,-74.0706408564,41.1058270081,substation,138000,60,,Orange & Rockland
383474557,-74.0339629366,41.1134506329,substation,138000,60,,
73571276,-73.8004407922,41.192726153,substation,345000-138000,,Millwood Substation,
383505059,-73.867741259,41.1601295738,substation,138000,60,Ossining Substation,Consolidated Edison
83405517,-72.8664664022,40.958321556,substation,138000,,Shoreham Power Station,
175773282,-72.8679012294,40.9592556914,substation,138000,,,
83135870,-72.8495546774,40.8554312126,substation,None,,Brookhaven Substation,Long Island Power Authority
83647804,-73.6857136735,40.6655301248,substation,138000,,Valley Stream Substation,Long Island Power Authority
61243114,-73.3395797558,40.8769650504,substation,138000-69000,,Elwood Substation,LILCO
383474535,-74.0296560688,41.1360406577,substation,138000,60,,
260184941,-74.0166445707,41.0933166514,substation,138000,60,,
95197288,-73.9634539234,41.0929135097,substation,None,,,
86300404,-73.947297502,41.2643678093,substation,345000-138000,60,Buchanan Substation,Consolidated Edison
248699674,-73.9521672718,41.2694114151,plant,None,,Indian Point Energy Center,Entergy
175766529,-73.493421765,44.7592982005,sub_station,None,,Plattsburgh Substation,New York Power Authority
175766583,-74.1186468481,44.8891145021,station,None,,Willis Substation,New York Power Authority
118097924,-79.0276639543,43.1399852285,substation,None,,,
146665131,-78.7159583268,43.1380822528,sub_station,None,,Robinson Road Substation,New York State Electric & Gas
175833225,-77.1632125812,42.2372784899,sub_station,None,,,
175784546,-76.7712850411,42.1083699061,sub_station,None,,Watercure Substation,
175833186,-76.7937870904,42.1023036873,sub_station,None,,Hillside Substation,
175833231,-77.5299395498,42.4395185766,sub_station,None,,Canandaigua Substation,New York State Electric & Gas
140540233,-77.7093797928,42.5567542001,sub_station,None,,Meyer Substation,New York State Electric & Gas
146647696,-78.2279546336,42.6698422268,sub_station,None,,,
146646819,-78.1916636709,42.7263611798,sub_station,None,,Wethersfield Substation,New York State Electric & Gas
144818449,-76.4310481334,41.7594014062,substation,None,,,
138527134,-75.3492417655,43.7652972118,sub_station,None,,,
137623969,-75.5420964781,43.7585301861,sub_station,None,,,
162784585,-75.319904415,43.9220118335,sub_station,None,,,
146645873,-78.4199885497,42.7643940551,sub_station,None,,High Sheldon Substation,New York State Electric & Gas
94483111,-78.9338506601,42.9727196441,sub_station,None,,,
387265182,-73.6288296214,42.7998125551,substation,None,,Eastover Substation,
79293030,-74.8048173861,45.0040332435,substation,None,,,
175668416,-75.9823514976,42.1369387283,sub_station,None,,Oakdale Substation,
142431633,-74.8351603502,44.9198090218,sub_station,None,,Dennison Substation,
273634028,-74.8016559157,45.0385449019,sub_station,None,,,
166062068,-79.7599866635,42.1965690699,sub_station,None,,,
176046713,-79.8357611763,42.1657523973,sub_station,None,,,Pennsylvania Electric Company
135584387,-74.4478702306,42.4399198652,substation,345000,,Gilboa Substation,
139903895,-73.847222947,42.2646395737,substation,345000,,Leeds Substation,ConEd
161897427,-74.9983094433,42.2557818227,sub_station,None,,Fraser Substation,
115339578,-78.6086963073,43.3523670774,station,None,,,
148402399,-77.6726100593,43.053902296,sub_station,None,,Station 80,Rochester Gas & Electric
73578036,-73.8563120935,40.9572749124,substation,345000-138000,60,Sprainbrook Substation,Consolidated Edison
419984183,-76.5319001065,43.4549822429,substation,None,,,
150246110,-76.3880616686,43.0403355788,substation,None,,,
173867575,-76.347781614,43.4000688334,station,None,,Volney Substation,
339711332,-73.9844364339,40.7049497964,substation,345000-138000,60,Farragut Substation,Consolidated Edison
139903894,-73.85029137,42.2710545407,substation,345000,60,Athens Substation,
140251931,-74.0476589287,41.9367323085,substation,345000,,Hurley Avenue Substation,
140259930,-73.9787659008,41.5747780147,substation,345000,,Roseton Substation,
150583898,-76.1185085538,42.9726396106,substation,None,,,
150583879,-76.1375674306,42.9722077387,substation,None,,,
173874082,-76.4471721583,43.4991026919,station,None,,,
173867615,-76.4072268223,43.5131838726,substation,None,,,
86249380,-73.7936629385,41.3533419528,substation,345000-115000,60,Wood Street Substation,NYSEG
74203235,-73.7821360023,41.1420550668,substation,None,,,
176696229,-73.9685365654,41.5699792594,substation,None,,,
86220649,-73.9545872994,41.5635786862,substation,None,,,
175648229,-74.7613301686,41.6695309769,station,None,,Coopers Corners Substation,New York State Gas & Electric
95825721,-74.1551365034,41.1497915166,substation,345000,,Ramapo Substation,
168747174,-75.2226283052,43.1792351432,sub_station,None,,Marcy Substation,New York Power Authority
150583874,-76.1453652314,42.9718933543,substation,None,,,
175926062,-74.0759532508,41.1839234427,substation,345000,,,
162864817,-73.9942139258,41.2015221328,substation,345000,60,,
383102704,-73.9191422683,40.8600200964,substation,345000-138000,60,Academy Substation,Consolidated Edison
73568847,-73.8319700483,41.0771248585,substation,None,,,
73667439,-73.8580704009,40.9394142495,substation,345000-138000,60,Dunwoodie Substation,Consolidated Edison
173867614,-76.3998907815,43.5223331396,substation,None,,,
309505686,-76.398135762,43.5225861493,plant,None,,James A. FitzPatrick Nuclear Power Plant,
146402114,-73.9737859418,40.7277120682,plant,None,,Con Ed East River Station,Consolidated Edison
115339590,-78.6046041934,43.3592215363,generator,None,,AES Somerset,
173867606,-76.4099456873,43.5195947858,substation,None,,,
175668442,-76.124742597,42.4443308723,sub_station,None,,,
139896636,-73.4422414766,41.6204172308,substation,345000,,Long Mountain Substation,
139630804,-73.4970332662,42.5961262574,substation,345000,,Alps Substation,
161552118,-76.4079534337,43.5207582447,plant,None,,Nine Mile Point Nuclear Generating Station,
323014599,-73.748581292,42.6241271876,substation,None,,,
