n_id,longitude,latitude,type,voltage,frequency,name,operator,not_accurate
171915107,-5.2097605334,9.56909996103,substation,225000,,Ferkessédougou,,
279465791,-5.01434992221,7.65164999108,substation,225000,,Poste de transformation HTB/HTA de Bouaké,Compagnie ivoirienne délectricité,
276766821,-7.19909477926,8.45977121484,substation,0,,Laboa,,
113475349,-7.52100047032,7.39234233854,substation,0,,Man,,
278061620,-6.6226620137,5.77545828674,substation,0,,Soubré,,
