n_id,longitude,latitude,type,voltage,frequency,name,operator,not_accurate
152403693,7.95639214184,50.8880264992,sub_station,0,,,,
152808122,8.01623789624,50.908411132,substation,110000,50,,,
89043564,7.98506747781,50.8422254632,substation,110000,50,Station Eiserfeld,Amprion,Yes
152403710,8.09976963934,50.752410044,station,0,,,,
152403702,7.97080699678,50.7830191882,station,0,,,,
152403700,7.92896636224,50.8178587179,sub_station,0,,,,
152403632,7.86394571439,50.7682419302,substation,110000,50,Station Dauersberg,RWE,Yes
28207242,8.13101169488,50.8848649607,substation,110000,50,,,
207573407,8.00712555408,50.8652849876,substation,110000,50,Eintracht,RWE,
137070665,7.87060948669,50.8864840415,station,0,,,RWE,
157327362,13.3625139698,50.9092244488,substation,110000,50,Freiberg Hütte,,
157327359,13.3583868366,50.8998600246,substation,110000,50,Wacker Freiberg,,
149527595,13.1614978312,50.8649811675,sub_station,0,,Umspannwerk Oederan,enviaM,
149527175,13.3181247559,50.9158330323,substation,110000,50,Freiberg West,enviaM,
333790233,13.2573630784,50.930093805,substation,110000,50,Freiberg/Nord (110 kV),enviaM,
146512547,13.3294269796,50.8762459016,substation,110000,50,Umspannwerk Brand-Erbisdorf,enviaM,
26380971,12.9737847417,52.5407379676,substation,15000,16.7,Unterwerk Priort,DB_Energie,Yes
29331392,13.3029423533,52.2335364132,substation,110000,50;16.7,Umrichterwerk Thyrow,DB_Energie,
27692916,13.277294326,52.3350129254,substation,15000,16.7,Unterwerk Genshagener Heide,DB_Energie,Yes
28775982,12.9691762252,52.4029689303,substation,15000,16.7,Unterwerk Golm,DB_Energie,Yes
28278297,13.458417637,52.6082314621,substation,15000,16.7,Unterwerk Karow,DB_Energie,Yes
27645830,12.3458236504,52.4597586018,substation,110000,16.7,Schaltwerk Nitzahn,DB_Energie,
28776902,12.4100720628,52.3821933178,substation,15000,16.7,Unterwerk Kirchmöser,DB_Energie,Yes
123105295,9.77361564432,52.5670779143,substation,110000,50,Meitze,EON_Netz,
26437278,9.88747574813,52.4944888142,substation,110000,50,Burgwedel,EON_Netz,
28074940,9.49340862408,52.5985230506,substation,110000,50,Büren,EON_Netz,
174530566,8.0392344736,47.559285503,substation,0,,,,
31367937,8.25192553683,47.6397698246,substation,110000,50,Umspannwerk Gurtweil,EnBW,Yes
202831211,7.95589399956,47.5639411234,substation,0,,,,
25788423,6.8573862554,51.6792524823,substation,110000,,Station Schermbeck,RWE,
25091074,6.95245264153,51.6322113497,substation,110000,16.7,Schaltwerk Kirchhellen,DB_Energie,
24462426,6.68078100083,51.6463022042,substation,110000,,Station Niederrhein,RWE,Yes
178664497,6.60221487156,51.7295634678,substation,110000,,Station Hamminkeln,RWE,
105662953,6.49904732912,51.7487203905,substation,15000,16.7,Unterwerk Mehrhoog,DB_Energie,Yes
23084417,6.22183149095,51.6946456456,substation,110000,,Station Pfalzdorf,RWE,Yes
33647679,6.30100896533,51.7302923885,substation,110000,,Station Monreberg,RWE,
34122030,6.44072930685,51.6616195618,substation,110000,,Station Xanten,,
97949455,6.42063148432,51.7663839606,substation,110000,,Station Rees,RWE,
54411776,6.46096503593,51.7149994315,substation,110000,,Station Mehr,RWE,
97949456,6.42229572521,51.8134835932,substation,110000,,Station Millingen,RWE,
92314579,6.21146998316,51.8476829799,substation,110000,,Station Hüthum,RWE,
135627985,6.27849095102,51.8334439216,substation,110000,,Löwenberg,RWE,
179150857,8.03644710021,53.4210922458,substation,110000,50,Bockhorn,Wehde Wind Energie GmbH,
31663088,8.12572950889,53.3745447161,substation,110000,50,Varel,EON_Netz,
173178563,8.05283756803,53.333880966,substation,110000,50,Conneforde 110/220 kV,TenneT-EON_Netz,Yes
104930624,8.46082747961,53.4890940102,substation,0,50,Nordenham,EON_Netz,
34481031,8.47179445633,53.3264515961,substation,0,50,Brake,EON_Netz,
24496549,8.48269283211,53.344143016,substation,0,50,Boitwarden,EON_Netz,
23799751,8.00148692629,53.5179754616,substation,110000,50,Roffhausen,EON_Netz,
27508746,11.4588599148,49.2670204132,substation,110000,,Umspannwerk Neumarkt,E.ON Netz GmbH,
28127434,11.5626603047,49.0340962702,substation,110000,,Dietfurt,DB Netz,
92924275,11.6748792824,48.9702219469,substation,110000,,Umspannwerk Riedenburg,E.ON Netz GmbH,
63528490,11.6016911269,48.7789305923,substation,20000,,,,Yes
35773026,12.1087410738,48.5469399095,substation,15000,16.7,Unterwerk Landshut,DB Energie GmbH,Yes
74681404,10.9307226563,48.9907943942,substation,15000,16.7,Unterwerk Grönhart,DB_Energie,Yes
60966790,11.0216119567,48.7362941788,substation,20000,,Umspannwerk Bertoldsheim,,Yes
30072074,11.1444332674,48.7350928143,substation,20000,,,,Yes
30157327,11.2739339453,48.7512163475,substation,20000,,,,Yes
30156510,11.41203492,48.7512054796,substation,20000,16.7,,DB_Energie,Yes
37715608,11.4267673702,48.7798544843,substation,15000,16.7,Unterwerk Ingolstadt,DB_Energie,Yes
24759324,11.7924138767,48.8382240604,substation,110000,,Umspannwerk Sittling,TenneT TSO GmbH-E.ON Netz GmbH,Yes
92924852,11.4438203954,49.1479234169,substation,110000,,Bachhausen,E.ON Netz GmbH,
257338186,11.0087381618,49.4230155314,substation,15000,50;16.7,Umrichterwerk Nürnberg,E.ON Kraftwerke,Yes
30152610,11.4626328203,49.2684344637,substation,15000,16.7,Unterwerk Neumarkt,DB_Energie,Yes
133349218,11.3269542156,49.3934813535,substation,110000,50,Umspannwerk Ludersheim,TenneT TSO GmbH-E.ON Netz GmbH,Yes
28956649,12.0822545115,49.2974477819,substation,110000,,Schwandorf,TenneT TSO GmbH,Yes
67550965,11.5991214522,49.3943192643,substation,110000,50,Umspannwerk Lauterhofen,E.ON Netz GmbH,
146735116,9.40967388987,50.3000531894,station,0,,Umspannwerk Bad Soden,ÜWAG,
145628245,9.29432720701,50.2361381957,station,0,,Umspannwerk Wächtersbach,E.on Netz,
40382025,9.54009824978,50.3533621338,substation,110000,50,,,
42803213,7.99953537153,51.558237598,substation,110000,,Station Ostönnen,RWE,
42488855,7.98122155814,51.6735263746,substation,110000,50,Station Lippborg,Amprion,Yes
38165878,8.33750340999,51.6049451453,substation,110000,50,Station Erwitte,RWE,
36735213,8.19169521061,51.6574304384,station,110000,50,Station Schoneberg,RWE,
202586904,8.15090345364,51.5522260427,substation,0,,,RWE,
140736831,8.13513004987,51.5556239041,substation,110000,50,Station Soest,RWE,
42804591,8.13784833853,51.547138822,sub_station,0,,UA Haarstrang,Stadtwerke Soest,
42802843,8.04456001156,51.4190452873,substation,110000,50,,,
42809340,7.96557837623,51.4544871153,substation,110000,50,Station Neheim,RWE,
42809973,7.71862724482,51.5342075253,substation,110000,,Station Unna,Amprion,Yes
42809772,7.77769773463,51.4519961212,substation,110000,50,Station Menden,RWE,
157628349,7.84178487918,51.39946117,substation,0,,,,
174342158,13.9765618757,51.5828185178,substation,110000,50,Umspannwerk Freienhufen,,
234155830,14.0243527297,51.6072761313,substation,110000,50,Umspannwerk Großräschen,,
175053862,13.7306796119,51.6390404509,substation,110000,50,Umspannwerk Finsterwalde,enviaM,
174506862,13.8365810787,51.5362009909,substation,110000,50,,,
94232595,12.2580896689,47.6451186261,substation,110000,50,Umspannwerk Ebbs,,
83500268,12.2008776692,47.6410153006,substation,0,,,,
92291506,12.1549015026,47.8372569165,substation,110000,50,Kraftwerk Rosenheim-Rohrdorf,,
92325191,12.5874713194,48.2479977828,substation,110000,,Umspannwerk Töging,,
92293213,12.1334738489,47.7445952348,substation,110000,50,,,
94406313,12.1477925533,47.5789011931,substation,110000,50,Umspannwerk Zell,,
92301227,12.195147407,47.6122333455,substation,110000,50,Umspannwerk Kiefersfelden,E.ON Netz GmbH,
369532948,12.7175458368,52.9319671475,substation,110000,50,Känzlin Nord,,
99417004,12.7923334545,52.9286214931,substation,110000,,Neuruppin,E.ON edis AG,
236968681,12.7179510808,52.9309764502,substation,110000,50,Känzlin,,
236968674,12.5880489849,52.9375011235,substation,110000,50,Kantow Nord,EON_edis,
236968677,12.5875528575,52.9365585377,substation,110000,50,Kantow,EON_edis,
88220973,12.4014115237,52.9485578819,substation,110000,50,Kyritz,EON_edis,
137884112,12.3379132878,52.9592477236,substation,110000,50,Mechow,EON_edis,
210507521,12.2486826517,52.9535897901,substation,110000,50,Granzow,,
233114957,12.1637710147,52.9590872033,substation,110000,50,Vehlin,EON_edis,
369520756,12.0913940323,52.9686000927,substation,110000,50,Schrepkow Nord,EON_edis,
235163912,12.0468401373,52.9897147491,substation,20000,50,Kletzke,Eon EDIS,Yes
59707532,11.8531051574,53.086544061,substation,110000,,Umspannwerk Perleberg,50Hertz-EON_Avacon,Yes
235163905,12.0909192513,52.9685684951,substation,110000,50,Schrepkow,EON_edis,
200363943,14.1525098616,52.1761682379,substation,110000,50,,EON_edis,
263744097,14.2552792411,52.1840955662,substation,110000,50,,,
200363941,14.2092732189,52.1821482513,substation,110000,50,Birkholz,EON_edis,
110524876,13.6575185142,52.3325647384,sub_station,110000,50,Niederlehme,EON_edis,
77946498,13.7579016864,52.4062227021,sub_station,110000,50,Umspannwerk Erkner,EON_edis,
98633217,14.0509149968,52.381981037,substation,110000,50,,E.ON edis,
23483391,13.9362690641,52.263964085,substation,110000,50,,EON_edis,
92315670,9.28336550114,53.8164533321,substation,110000,50,Freiburg/Elbe,,
52430005,9.13198818763,53.6961016349,substation,110000,50,Hemmoor,EON_Netz,
200448330,9.10722442741,47.9965505891,substation,0,,,,
31367936,9.01340237137,47.8453486126,substation,110000,50,Umspannwerk Stockach,,Yes
139080618,9.27175363013,47.9145161546,substation,0,,,,
359404062,8.82645725881,53.0026663574,substation,110000,,Weyhe,Avacon AG,
113047581,9.25103429423,53.1144323213,substation,110000,50,Sottrum,EON_Netz,Yes
38182023,9.11892633683,53.0025962676,substation,110000,50,Etelsen,EON_Netz,
38182617,9.0377417384,53.0573297502,substation,110000,50,Oyten,EON_Netz,
35405877,9.02743124612,53.0174489613,substation,110000,50,Achim,EON_Netz,
175468494,8.71608546563,52.8513529279,substation,110000,,Bassum,Avacon AG,
28712987,7.07597855274,50.7352379785,station,0,,Station Endenich,Westnetz GmbH,
32591942,7.07629736551,50.7349619029,substation,0,,Umspannanlage Endenich 110kV,Bonn-Netz GmbH,
22768865,7.0652176939,50.7524878559,substation,0,,Bonn-Nord (Westnetz GmbH),Westnetz GmbH,
36929564,7.06214874477,53.4607820613,substation,110000,50,Manslagt,EON_Netz,
159839587,7.11724424527,53.4564739113,substation,110000,50,Jennelt,EON_Netz,
28909597,10.6401860932,52.2692407025,substation,15000,16.7,Unterwerk Braunschweig,DB_Energie,Yes
28214207,10.128968206,52.6750169702,substation,15000,16.7,Unterwerk Garßen,DB_Energie,Yes
28765009,10.4118157204,53.2669605422,substation,15000,16.7,Unterwerk Lüneburg,DB_Energie,Yes
28701985,10.0013207555,53.4489730215,substation,15000,50;16.7,Umformerwerk Harburg,DB_Energie,Yes
27329238,9.90385878831,53.3765768808,substation,110000,16.7,Schaltwerk Nenndorf,DB_Energie,
28265548,10.5438288104,52.9639562941,substation,15000,16.7,Unterwerk Uelzen,DB_Energie,Yes
24269729,9.95312487342,52.3814607372,substation,15000,50;16.7,Umformerwerk Lehrte,DB_Energie,Yes
27536794,11.2955162665,52.5008273047,substation,15000,16.7,Unterwerk Solpke,DB_Energie,Yes
24258270,10.6751834614,52.4211509192,substation,15000,16.7,Unterwerk Fallersleben,DB_Energie,Yes
165822494,12.1960686289,50.4373304138,substation,110000,50,Umspannwerk Droßdorf,enviaM,
176229454,12.316029247,50.3137379006,substation,110000,50,,,
36929568,7.23469712387,53.5980325968,substation,110000,50,Lütetsburg,EON_Netz,
36910851,7.16283498614,53.6173956671,substation,110000,50,Norddeich,EON_Netz,
370338366,7.47726828418,53.5770821382,substation,110000,50,Holtriem,EON_Netz,
87240863,7.26413653708,53.5615674464,substation,110000,50,Halbemond,EON_Netz,
150301360,11.991576564,50.6613780995,substation,110000,50,Umspannwerk Zeulenroda,,
137247102,11.9201726765,50.7021066023,substation,110000,50,Umspannwerk Auma,,
137247099,11.7928093128,50.5734340524,substation,110000,50,Umspannwerk Schleiz,,
128277645,11.646378686,50.5348769896,substation,110000,50,Umspannwerk Remptendorf,50Hertz Transmission GmbH,Yes
151691300,8.79129466617,51.4266626071,substation,110000,50,,RWE,
170017444,8.6840906854,51.4356359994,substation,110000,50,,,
42797575,8.62480055555,51.427888408,substation,110000,50,Station Nehden,Amprion,Yes
36929574,7.29690729201,53.5330286186,substation,110000,50,Marienhafe,EON_Netz,
36929578,7.16128268815,53.482472794,substation,110000,50,Eilsum,EON_Netz,
92356649,6.43614857513,51.3705739589,substation,0,,Station Kempen,RWE,
92356660,6.32699667995,51.3328523982,substation,110000,,Station Schaphausen,RWE,
36519422,7.17235604016,53.351699322,substation,110000,50,Emden West,EON_Netz,
31105067,10.2316415853,48.5297622822,substation,110000,50,Umspannwerk Niederstotzingen,EnBW,Yes
169348252,9.96056331118,48.4730586914,substation,110000,,Umspannwerk Dornstadt,Netze BW,
107475255,9.98461200308,48.4261446186,substation,110000,,Umspannwerk Ost,Stadtwerke Ulm/Neu Ulm,
38145600,9.70859263925,48.4948465407,substation,110000,,,,
38486453,9.67863633405,48.5713906228,substation,0,,Albwerk Umspannwerk Gosbach,EnBW,
38483832,9.87073765754,48.5682556114,substation,110000,50,Umspannwerk Amstetten,,
33113856,9.84960640769,48.6288561727,substation,110000,50,Umspannwerk Eybacher Tal,EnBW,
89292179,10.418561799,48.5718333033,substation,110000,,Lauingen,Lechwerke Augsburg,
31019939,10.401586907,48.5099297477,substation,110000,50,Gundremmingen,LEW,Yes
51397471,10.6767405522,48.3991708589,substation,0,,Umspannwerk,,
76246159,10.8637616674,48.5468231412,substation,110000,,Umspannwerk Meitingen,Elektrizitätswerke Augsburg,Yes
89068905,10.69366725,48.560994937,substation,0,,Umspannwerk Wertingen,,
95841638,10.1156275514,48.4240230037,station,110000,,Station 687,LEW,
95829832,10.3127671907,48.3784917176,substation,110000,,,,
95816210,10.3815710037,48.4852541507,substation,110000,,,,
143031236,10.4268430558,48.4264424332,substation,0,,Umspannwerk Burgau,LEW,
95832925,10.2755664156,48.4432714063,substation,110000,,Umspannwerk Denzingen,,
95835829,10.1566677702,48.3551725235,station,110000,,,,
44308284,10.1373620509,48.307370907,station,0,,,,
31019937,10.083751331,48.2688675033,substation,110000,50,Vöhringen LEW,LEW,Yes
99399546,10.2996352709,48.2346888114,substation,0,,,,
87350976,10.4937331187,48.2473401444,substation,0,,,,
96238579,10.3558242873,48.2562483144,substation,110000,,,,
95841598,9.99206780606,48.3836593555,station,110000,,,,
95860781,10.0419361159,48.315309633,station,110000,,,,
27105001,9.39174340656,48.7190421582,substation,15000,16.7,Unterwerk Plochingen,DB_Energie,Yes
27590780,9.55391779902,48.6656459598,station,110000,,EnBW Umspannwerk Hattenhofen,EnBW,
31395044,9.72125715099,48.6944934887,station,110000,50,EnBW Umspannwerk Eislingen Ost,EnBW,
219516441,9.65990323842,48.6938830062,substation,0,,,,
38485609,9.8769645792,48.5690500641,substation,15000,16.7,Unterwerk Amstetten,DB_Energie,Yes
41252353,10.0211144379,48.397619911,substation,15000,50;16.7,Umformerwerk Neu-Ulm,DB_Energie,Yes
44288738,10.0229609136,48.3963054319,substation,0,,Umspannwerk Neu-Ulm Ost,LEW,
134406346,10.1941645807,48.4443172289,station,0,,,,
111516290,10.3844801086,48.5060361089,substation,0,,,,
134406268,10.2645251976,48.4602020096,substation,0,,,,
95841606,10.1005270783,48.4462302966,substation,110000,,,,
95841607,10.1081060718,48.4404902868,substation,110000,,,,
144441550,10.2283782943,48.6268466929,substation,110000,50,Umspannwerk Giengen,EnBW,
179671698,10.1673696956,48.6499291972,substation,110000,50,Umspannwerk Mergelstetten,EnBW,
25165811,10.1750716363,48.682422142,substation,110000,50,Umspannwerk Schmittenberg,ENBW,
144437238,10.1679851673,48.6275492372,substation,110000,50,Umspannwerk Herbrechtingen,EN BW Netze BW,
215601263,6.37653158783,50.6539767635,station,0,,,,
34479547,6.4538513627,50.6300827891,substation,110000,50,,RWE,
127189039,6.83870115265,52.0300696504,substation,110000,,Station Vreden,RWE,
127187905,6.92667705066,52.1311739665,substation,110000,,Station Alstätte,RWE,
42874315,7.01007615123,52.1773416735,substation,110000,,,,
29471404,7.0349679655,52.2028607768,substation,110000,,Station Gronau,RWE,Yes
85811248,13.5507984339,54.5040878824,substation,0,50,Mukran,E.ON edis AG,
39612217,13.657534784,54.3731767876,substation,110000,50,Umspannwerk Sellin,EON_edis,
30747379,13.4409085242,54.4085827261,substation,0,,Bergen auf Rügen,E.ON edis AG,
30285873,6.94486221137,50.8479098496,station,110000,,,access,
32148946,6.96330548818,50.8337629358,substation,110000,50,Station Bollenacker,RWE,Yes
32151141,6.97559033049,50.8564408908,station,110000,50,Umspannwerk Shell,RheinEnergie,
92782642,12.617977275,48.8797198484,substation,110000,50,Umspannwerk Straubing,E.ON Netz GmbH,
60121619,12.5549775365,48.8965473879,substation,0,,Umspannwerk Kagers,,
29017985,12.2062554964,48.9949106801,substation,110000,,Umspannwerk Neutraubling,E.ON Netz GmbH,
29417741,12.1504016728,49.0127518367,substation,220000,,Umspannwerk Regensburg,TenneT TSO GmbH,
29417980,12.3450471994,48.9734767426,substation,110000,50,Umspannwerk Geisling,E.ON Kraftwerke,
29419085,12.3553164323,48.8875764272,substation,0,,Umspannwerk Sünching,E.ON Netz GmbH,
78441545,12.8533180441,48.7650856848,substation,110000,,Umspannwerk Plattling,TenneT TSO GmbH,Yes
92789023,12.7054872434,48.9167988872,substation,110000,50,Umspannwerk Bogen,,
32063539,12.2147735094,54.1003234808,substation,380000,50,Bentwisch HGÜ,50Hertz Transmission,
32318130,12.2135605907,54.1119998917,substation,110000,50,Bentwisch,E.ON edis AG,Yes
24815262,6.33000626218,51.2429166388,substation,110000,50,Station Dülken,RWE,Yes
92983998,6.25467229238,51.3010758131,substation,110000,,Station Breyell,RWE,
92314598,6.33074131533,51.5113625445,substation,110000,,Station Geldern,RWE,
92983985,6.38497000476,51.2877909912,substation,0,,Station Süchteln,RWE Westnetz,
93052378,6.45045920895,51.2866048865,substation,0,,Station Anrath,RWE,
43667465,9.06393606706,48.8333166932,station,0,,Umspannwerk Ditzingen,,
43688805,9.04543543896,48.9029609976,substation,110000,50,380kV-Umspannwerk Pulverdingen,EnBW Transportnetze AG,Yes
22888504,9.17203811035,48.7034204542,substation,0,,Umspannwerk Echterdingen Nord,EnBW,
202455353,9.04109217788,48.6864295847,substation,110000,,Umspannwerk Böblingen-Ost,,
23548800,9.2457800147,48.6649050754,substation,0,,Netze BW Umspannwerk Sielmingen,,
22888542,9.16858385107,48.6805565063,station,0,,,,
34070588,11.7787087797,48.112744326,substation,110000,50,Umspannwerk Vaterstetten,EON_Netz,
36071742,11.7784334501,48.1769693615,substation,110000,,Umspannwerk Landsham,E.ON Netz,
27366433,11.7565837071,48.0873296105,substation,110000,50,,E.ON Netz GmbH,
24158385,11.8132329291,48.2212664672,substation,110000,,Umspannwerk Neufinsing,TenneT TSO GmbH,Yes
92356669,6.57421447945,51.5246368236,station,0,,Station Graft,RWE,
114364871,6.57367069011,51.5512847095,station,0,,Station Annaberg,RWE,
91294167,6.55751956916,51.5176674575,sub_station,0,,,,
91274923,6.55227545507,51.5098289308,station,0,,Station Kamp,RWE,
156352575,13.6428739419,52.116766101,substation,0,,,,
156354808,13.6503636992,52.155066297,substation,0,,,,
44138560,8.72927061825,48.895999634,substation,0,,,,
38563444,8.81515793853,48.9432755433,substation,110000,,110kV-Umspannwerk Enzberg,EnBW,
32966636,8.6415840753,48.8900525293,substation,110000,50,220 kV-Umspannwerk Birkenfeld,EnBW,Yes
369857635,13.2253135882,54.2075785707,substation,0,,Falkenhagen,EON_edis,
29389718,13.0786421467,54.2848461828,substation,110000,,Umspannwerk Lüdershagen,50Hertz Transmission GmbH-E.ON edis AG,Yes
39612335,13.347590575,54.3269951559,substation,0,50,Garz,E.ON edis AG,
31018936,13.3829917039,54.0754215467,substation,110000,50,Umspannwerk Greifswald,E.ON edis AG,
37593158,8.40655949622,49.5116993405,substation,0,,,Umspannwerk Oppau,
152924503,8.34674515704,49.5502247034,station,0,,,Pfalzwerke,
45150187,8.41734538416,49.4582807674,substation,0,,TWL Umspannwerk Mundenheim,TWL,
40796173,10.1458764474,49.7117645791,station,110000,,Umspannwerk Marktsteft,,
24762015,10.2554970998,49.6934173775,substation,110000,50,Umspannwerk Iphofen,,
24727406,10.9429159783,49.4274535752,substation,110000,50,Umspannwerk Zirndorf,,
23415653,11.0089273351,49.4204965246,plant,0,,Großkraftwerk Franken I,E.ON Kraftwerke,
128618461,10.1810497052,49.7407973618,station,110000,,,,
30239842,10.0149155902,49.7919706026,station,110000,,Umspannwerk Rottendorf,,
133164641,10.1851077948,49.5263650781,station,0,,Umspannwerk Wallmersbach,,
149815377,7.83810287014,49.948537429,substation,110000,50,Station Waldalgesheim,RWE,
150142062,7.97411241339,49.8165178065,station,0,,Umspannwerk Wöllstein,,
150142092,7.89532663736,49.8575349926,station,0,,,,
152022992,7.79256713751,49.8105487906,substation,110000,50,Niederhausen,,Yes
50248876,7.68448206023,50.021332747,substation,110000,,Station Rheinböllen,Westnetz,
106201518,7.44197458807,50.1177790347,substation,0,,,,
80900115,7.59208022295,50.1514610228,substation,0,,Station Dörth,,
147213229,7.70235070089,50.3309580402,substation,110000,,Umspannanlage Bad Ems,Westnetz- Süwag,
106201510,7.7243834501,50.1810582925,substation,0,,"Umspannwerk ""Auf der Brunke""",,
137464448,7.56160327541,50.3336805771,substation,0,,Station Karthause,Westnetz- Energienetze Mittelrhein,
395847307,7.44948701423,50.4025259728,substation,110000,,Station Weißenthurm,,Yes
34743890,7.48113047531,50.4229788546,substation,110000,,Station Neuwied,RWE,
160584794,7.59330185837,50.3859438273,substation,110000,,Station Koblenz,RWE,Yes
305859149,7.46045137234,50.2729860369,substation,0,,Station Lehmen,,
103925981,7.54533432188,50.2627129477,substation,0,,Station Hünenfeld,,
202402944,7.63220030391,50.0604096942,substation,0,,,,
198448981,7.81571993565,49.9220781126,substation,110000,,Umspannwerk Waldlaubersheim,RWE,Yes
128400453,7.94208277289,49.9043287452,station,0,,Umspannanlage Gensingen,,
149981427,7.94867771332,49.9571305408,sub_station,20000,50,Umspannwerk Bingen-Kempten,,Yes
50651218,7.70844417021,53.0977189651,substation,110000,50,Ramsloh,EON_Netz,
38180005,7.6030123082,53.1146470093,substation,110000,50,Langholt,EON_Netz,
157820259,10.4306127312,51.4893353703,substation,110000,50,Bischofferode,Thüringer_Energienetze,
172562526,10.6203574906,51.456774933,substation,110000,50,,Thüringer_Energienetze,
45330411,10.7346352869,51.4412980043,substation,110000,50,Wolkramshausen (110 kV),Thüringer_Energienetze,
124387412,7.90183470975,50.3494600075,substation,110000,,Umspannwerk Holzappel,,
147493366,8.03350762871,50.3925568713,station,0,,Umspannanlage Staffel,,
149151831,8.00889358435,47.6532411652,substation,0,,,,
103737880,7.90869609794,47.6132430843,station,0,,,,
20562009,13.4938173628,52.5600895512,substation,110000,50,Umspannwerk Falkenberger Straße,Stromnetz Berlin,
24477871,13.5277394879,52.5585275267,substation,110000,50,Umspannwerk Rüsternweg,Stromnetz Berlin,
40895836,13.4930308539,52.5607371968,substation,0,,,,
43667471,9.18549876885,48.8781730558,substation,110000,50,Kornwestheim Nord,,
133531277,9.1855216364,48.8781409357,substation,0,,,,
43667469,9.15101173774,48.8909497831,substation,110000,,Umspannwerk Ludwigsburg West,,
46887602,9.076174083,48.8886039964,substation,0,,,EnBW,
136394387,9.0865481355,48.9583849031,station,0,,,,
48428875,9.37760581754,48.8126068944,substation,110000,,EnBW Umspannwerk Endersbach,Netze BW,Yes
45403140,9.26068617603,48.8694147867,station,0,,Umspannwerk Aldingen,,
92897372,11.1430436134,48.4654795969,substation,110000,50,Umspannwerk Aichach,,
92899436,11.1876985884,48.3123552643,substation,110000,,Umspannwerk Odelzhausen,Bayernwerk AG,
191969627,11.2547186011,48.2814657612,substation,0,,,,
125864323,11.2564205036,48.5710875455,substation,0,,,,
90148336,8.02029038222,50.9236169231,substation,220000,50,Setzer Wiese,RWE,
132814303,7.93812766688,51.0106734802,substation,110000,50,Station Altenkleusheim,RWE,Yes
177695053,7.83520214047,51.0064469404,substation,110000,50,,,
147980772,7.97568703983,50.9702883913,substation,110000,50,,,
99146261,8.10474407057,50.989227676,substation,110000,50,,,
153415841,7.99114728623,50.9573230878,substation,110000,50,Station Kreuztal,Westnetz,
196088258,9.11410242155,48.69079916,substation,0,,Umspannwerk Musberg,,
144965635,14.9641065352,51.1657795414,substation,110000,,Umspannwerk Görlitz,,
74155827,14.8417847106,51.3027953766,substation,110000,50,Umspannwerk Niesky,eon,
98621233,14.1186009857,51.2620438198,substation,110000,50,,,
142267182,14.6077112272,51.2635582329,substation,110000,50,,,
140386222,14.9760230855,51.0898687944,substation,110000,50,Umspannwerk Deutsch Ossig,,
150888546,9.1789292888,50.1852332322,substation,0,,Umspannwerk Gelnhausen,E.on Netz,
41590971,9.11533808469,50.171285368,substation,110000,50,Niedermittlau,EON_Netz,
40403047,11.981775104,52.3723994075,substation,110000,50,Parey,HSN,
132713623,11.6784731016,52.214078134,substation,110000,50,,,
202653431,11.7802785424,52.1729749748,substation,0,,,,
40424403,11.7779951826,52.172652219,substation,110000,50,,HSN,
149637158,11.9504469863,52.1456097104,substation,110000,50,,,
40424560,11.8226297169,52.277741758,substation,110000,50,Burg,HSN,
28110828,12.1317967575,52.4318289832,substation,110000,50,Genthin,HSN,
33898602,11.8497761956,48.185050567,substation,15000,16.7,Unterwerk Markt Schwaben,DB_Energie,Yes
35064358,11.859325936,48.3053397702,plant,0,,,,
35026569,11.936633681,48.0481519755,substation,15000,16.7,Unterwerk Grafing,DB_Energie,Yes
42336363,13.5284868333,48.8103559018,substation,110000,50,Umspannwerk Freyung,E.ON Netz GmbH,
42336163,13.4864970625,48.7697343695,substation,110000,50,Umspannwerk Perlesreuth,E.ON Netz GmbH,
42336364,13.3699125128,48.8782071073,substation,110000,50,Umspannwerk Grafenau,E.ON Netz GmbH,
96095389,13.2137351585,48.9982430492,substation,110000,50,,E.ON Netz,
88427245,13.1503889029,48.9734772835,substation,110000,50,Umspannwerk Regen,E.ON Netz,
46832317,8.31945584427,50.1566651244,substation,15000,16.7,Unterwerk Niedernhausen,DB_Energie,Yes
23640532,8.43517065417,50.0590206941,substation,110000,,Umspannwerk Marxheim,Süwag,
216681236,8.32057436265,50.1619708848,substation,0,,Umspannwerk Niedernhausen,,
152403654,8.24762905776,50.2359159954,substation,15000,16.7,Unterwerk Wörsdorf,DB_Energie,Yes
147497591,8.2300791589,50.337337787,station,0,,,,
23266120,8.39655112406,50.2378185026,sub_station,0,,Umspannwerk Oberems,,
27576354,8.55806887478,50.1035736309,substation,15000,16.7,Unterwerk Frankfurt-Höchst,DB Energie GmbH,Yes
241221910,8.5453438833,50.0967230703,substation,0,,,,
23641079,8.53721905903,50.0780850527,substation,110000,,,way_area,Yes
24686681,8.38076899572,49.9927843935,substation,110000,50,,,
38661452,8.47137164222,50.0972077629,substation,110000,50,Umspannwerk Kriftel,Amprion,Yes
25652351,8.18764620694,50.0314698751,substation,0,,Umspannwerk Budenheim,,
97597296,8.04723020716,49.9859681112,substation,110000,,,,
149981428,7.94848212685,49.9547616499,substation,15000,16.7,Unterwerk Bingen,DB Energie GmbH,Yes
35031417,8.41511807374,50.0048340472,substation,15000,16.7,Unterwerk Flörsheim,DB_Energie,Yes
46653552,13.3459191594,52.4647120927,substation,110000,50,Umspannwerk Rubens,Vattenfall Europe AG,
27527457,13.3294983233,52.4437565687,substation,110000,50,Umspannwerk Steglitz,Vattenfall Europe AG,
30303506,13.3686540366,52.5031475699,substation,110000,,Berlin/Mitte,50Hertz-Stromnetz Berlin,Yes
24715381,10.1603033139,49.9891567447,substation,110000,50,Umspannwerk Bergrheinfeld,TenneT TSO GmbH,Yes
108797675,10.1878290379,49.9812166955,substation,380000,,Grafenrheinfeld,,
24761254,10.2184253614,50.0166111006,substation,0,,Schaltwerk Schwebheim,E.ON Netz GmbH,
132913956,10.0611821276,49.9803109714,station,0,,Umspannwerk Zeuzleben,Unterfränkische Überlandzentrale eG,
269664345,9.48245232557,51.8538517056,substation,110000,50,,,
97299909,9.6240266646,51.9272625946,substation,110000,50,Umspannwerk Eschershausen,Westfalen Weser Netz,
165716088,14.6933299613,51.9454933608,substation,110000,50,Altsprucke,enviaM,
52983550,14.6044766383,52.1744941687,substation,110000,50,Eisenhüttenstadt,50Hertz_Transmission-EON_edis,Yes
142677488,14.6422714872,52.1508589499,substation,110000,50,,,
106696724,8.69140488815,53.7090067512,substation,110000,50,Krempel,EON_Netz,
37730889,8.59072360164,53.7554608148,substation,110000,50,Spieka,EON_Netz,
111987585,8.71001785514,53.8478728034,substation,110000,50,Industriestraße,EON_Netz,
117216153,8.62084769233,53.5109361261,substation,110000,,Surheide,EON_Netz,
111990696,8.60137577185,53.5601422446,substation,110000,50,,EON_Netz,
41831269,8.62148682892,53.6024955539,substation,110000,50,Leherheide,EON_Netz,
88873933,8.82543427674,53.6132441929,substation,110000,50,Bederkesa,EON_Netz,
39673980,11.1294048236,50.9835929575,substation,10000,50,Erfurt/Hochstedt,SWE_Netz,Yes
174153942,11.3562301744,50.9665658378,substation,110000,50,Weimar/Süd,Thüringer_Energienetze,
148211527,11.4703941444,50.9303902644,substation,110000,50,Großschwabhausen,50Hertz-EON_TEAG,Yes
152321425,11.3311883387,50.999917665,substation,110000,50,Weimar Nord,Thüringer_Energienetze,
34105558,11.1198648342,50.9990597567,substation,110000,50,Vieselbach (TEN),Thüringer_Energienetze,
27590782,9.54701556026,48.6256730539,station,110000,,EnBW Umspannwerk Weilheim/Teck,EnBW,
30061250,9.44373095466,48.6400672671,station,0,,EnBW Umspannwerk Kirchheim Süd,EnBW,
63111295,7.42418697252,53.2596320848,substation,110000,50,Leer/Nord,EWE_Netz- EON_Netz,
71026531,7.45032496195,53.2990995347,substation,110000,50,Neermoor,EON_Netz,
34835258,7.2242384338,53.3499271625,substation,110000,50,Emden-Borßum,TenneT-EON_Netz,Yes
36956066,7.38517291206,53.3597567481,substation,110000,50,Ihlow,EON_Netz,
38134701,7.50847694292,53.2437906718,substation,110000,50,Loga,EON_Netz,
62423989,7.43159718827,53.2271068639,substation,110000,50,Leer/West,EON_Netz,
172967030,7.38954219339,53.2501941959,substation,110000,50,Jemgum,EON_Netz,
23789696,6.1893769068,50.880077506,substation,0,,,,
25992879,6.21619298913,50.9123618339,substation,110000,50,Siersdorf,,Yes
116662430,6.16861245493,50.9116455473,sub_station,0,,,,
23350554,6.15058469252,50.8790622575,station,0,,Umspannwerk,,
64864388,8.6446262135,48.1453721051,station,0,,Umspannwerk Prim,ENRW Energieversorgung Rottweil GmbH & Co. KG,
102864181,8.65446515373,48.1406390347,station,0,,EnBW Umspannwerk Rottweil,EnBW,
22888584,9.13249218116,48.7261885244,substation,110000,,Umspannwerk Möhringen,,
5544326,8.98919393241,48.7140222677,substation,110000,50,Umspannwerk Sindelfingen,,
104112267,6.98469850145,51.5535997739,substation,0,,,RWE,
70807758,6.98336029595,51.5347921947,substation,110000,,Station Welheim,RWE,
24280460,6.90660784109,51.5652424549,substation,110000,50,Station Nordlicht,RWE- ELE,Yes
25091023,6.93194058686,51.565044546,substation,110000,,Station Ellinghorst,RWE,
158044843,6.94870479788,51.5481565189,station,110000,,Station Rheinbaben,RWE,
158044842,6.97237581777,51.5741352255,station,110000,,Station Gladbeck,RWE,
66764943,6.92013046576,49.9705819073,substation,110000,,Station Wengerohr,Amprion- Westnetz,Yes
91655767,6.79227429693,49.8530784317,station,0,,Station Bekond,,
91765386,7.12091283211,50.0388897895,substation,0,,Station Pünderich,,
100306193,7.36361406502,50.2408758991,sub_station,0,,,,
148361535,7.33323058148,50.1856754009,substation,0,,,,
91765334,7.1145181348,50.1496458947,sub_station,0,,RWE,,
91765409,7.22699308143,50.3183571273,station,0,,,,
91765392,7.16055479253,50.2381082606,station,0,,,,
148363054,7.22649108595,50.1214548403,station,0,,,,
91765357,7.05187139718,50.0082662355,substation,0,,,Westnetz,
106976937,6.81132093571,50.0239035888,sub_station,0,,,,
91765332,6.86968399265,50.0848402774,substation,0,,,,
92070326,7.05655897468,49.9293232477,station,0,,,,
121898368,6.95100819482,49.8783302261,station,0,,,,
190316688,9.68885344097,53.0682015004,substation,0,,Tewel,EON_Netz,
35446993,9.41521896741,53.122011999,substation,110000,50,Rotenburg (Wümme),EON_Netz,
38099521,9.65278146502,52.9153233447,substation,110000,50,Bomlitz,EON_Netz,
37194228,9.58193181607,52.9921071874,substation,110000,50,Visselhövede,EON_Netz,
37200366,9.84212078734,53.0036939408,substation,110000,,Soltau,EON_Netz,
189640126,9.77340876771,53.126084616,substation,110000,50,Schneverdingen,EWE,
166604824,12.9306930402,50.5027784443,substation,110000,50,,,
36183042,12.7892381904,50.6270562614,substation,110000,50,Umspannwerk Zwönitz,,Yes
190896835,8.5778840898,53.181808788,substation,0,,Blumenthal,Wesernetz,
365179234,8.55103796799,53.1917746801,substation,0,,Rönnebeck,Wesernetz,
35049935,8.59929586626,53.1773916678,substation,110000,,Vulkan,wesernetz,
24502420,9.50178971213,53.542814388,substation,110000,50,Dollern,,Yes
23609859,9.79855588582,53.4519986365,substation,110000,50,,EON_Netz,
27329239,9.90661270362,53.376229301,substation,110000,50,Nenndorf,EON_Netz,
97219846,9.1337864519,53.4745009788,substation,110000,50,Bremervörde,EON_Netz,
29341067,9.65473538145,53.7627421379,substation,15000,16.7,Unterwerk Elmshorn,DB_Energie,Yes
32539644,9.94712210901,54.1090104018,substation,15000,16.7,Unterwerk Neumünster,DB_Energie,Yes
23485187,9.63477878891,53.5389144029,substation,110000,50,Umspannwerk Mittelnkirchen,EON_Netz,
29344008,9.52961309408,53.6189791884,substation,110000,50,Stade,,Yes
34840725,7.34445049134,52.3283504955,substation,15000,16.7,Unterwerk Salzbergen,DB_Energie,Yes
29072254,7.3011235693,52.784064579,substation,15000,16.7,Unterwerk Haren,DB_Energie,Yes
34837564,7.63475836243,51.923814737,substation,15000,16.7,Unterwerk Münster,DB_Energie,Yes
33816726,7.12308198261,51.1715887959,substation,110000,50,Station Halfeshof,,Yes
92165136,7.14761143438,51.161937875,sub_station,0,,,,
35665034,7.18593216731,51.1761129478,station,0,,E-Werk,,
156937988,7.1939522313,51.1729948544,station,0,,,,
27098669,7.25426887081,51.1887548218,station,0,,Station Lennep,RWE,
156398578,7.21586258212,51.2209293823,substation,0,50,Station Ronsdorf,RWE,
92165117,7.25206825859,51.2218023224,station,0,,Station Luckhausen,,
92165134,7.22812214732,51.1873983959,station,0,,,,
35089617,7.20127597625,51.133194217,station,0,,,,
35302770,7.17260228364,51.1927536195,sub_station,0,,,,
88118566,7.01972150691,51.0927333873,station,0,,Station Balken,,
22761839,6.96568445966,51.0693295406,substation,110000,,Station Opladen,RWE,Yes
88762020,7.05863310633,51.0564817398,station,0,,,,
88762023,7.11891206721,51.0813997247,station,0,,,,
88762027,7.18272531948,51.0596969376,substation,0,,,Westnetz,
90431641,8.51049000746,47.947007961,substation,0,,,,
88124820,8.55084489305,47.8318862175,station,0,,Umspannwerk Zollhaus,,
88124829,8.65852627748,47.9210022022,substation,0,,,,
162152604,11.6347125942,53.3889871496,substation,110000,50,,,
430206488,11.8129343897,53.4243986039,substation,0,,,,
30040568,11.3706374165,53.6009910913,substation,110000,50,Görries,50Hertz-EON_edis,Yes
202580125,7.97174954427,51.6816336908,station,0,,,,
262931261,7.96994667453,51.6789741206,plant,0,,Kraftwerk Westfalen,RWE,
51362501,11.3320237334,48.2119174806,substation,110000,,Umspannwerk Olching,EON_Netz,
18629425,11.3704263094,48.2914922548,substation,110000,,Umspannwerk Oberbachern,TenneT TSO GmbH-E.ON Netz GmbH,Yes
34884866,11.4553194364,48.2712096504,substation,110000,,Umspannwerk Dachau,,
26927264,6.5960198471,50.9525274662,substation,110000,50,Station Paffendorf,Amprion,Yes
95346134,6.5274315979,50.9388653044,station,0,,SA Tollhausen,,
95346118,6.68075033997,50.896260449,sub_station,0,,,,
95346141,6.71377214679,50.8975113226,station,0,,,,
32993727,6.66478147402,50.9883810574,substation,110000,50,KW Niederaußem,RWE,Yes
23084554,6.80459031409,50.9662511414,substation,110000,,Station Brauweiler,RWE,Yes
34171463,6.69278195218,50.974956544,substation,110000,,Station Oberaußem,RWE,
95346117,6.70417680227,50.9302786731,substation,110000,,Station Ichendorf,RWE,
201956117,6.7923185599,50.8991177754,station,0,,,,
34069361,6.60239139317,50.9714957364,substation,110000,,Station Glesch,RWE,
34289171,6.55499725956,50.9951121891,station,0,,Station Bedburg,RWE,
193749154,9.38369293942,51.0120748896,substation,110000,,Umspannwerk Homberg (Efze),,
156960655,9.51424013882,51.2590355983,substation,110000,,Umspannwerk Bergshausen,TenneT,Yes
155535736,9.44162086945,51.2521633321,substation,110000,50,Schaltanlage Rengershausen,,
172471697,9.42413432836,51.25075337,substation,110000,50,Baunatal,,
156673636,9.25938384941,51.0603668958,substation,110000,50,Umspannwerk Borken,TenneT,Yes
52527267,7.48030089682,51.6177188012,substation,110000,16.7,Kraftwerk Lünen,DB_Energie,
52527278,7.53247122242,51.5372798301,substation,15000,16.7,Unterwerk Scharnhorst,DB_Energie,Yes
89774171,7.96689340533,51.1677475257,substation,15000,16.7,Unterwerk Finnentrop,DB_Energie,Yes
28685459,8.69814028492,50.6986605854,substation,15000,16.7,Unterwerk Fronhausen,DB_Energie,Yes
97826922,8.14955685223,50.8346152852,substation,15000,16.7,Unterwerk Rudersdorf,DB_Energie,Yes
31143512,7.46184806549,51.4088781306,substation,15000,16.7,Unterwerk Hagen-Hengstey,DB_Energie,Yes
109504648,7.34142023352,51.632152236,plant,0,,Kraftwerk Datteln 4,eon,
4474019,7.4819693933,51.6148706291,generator,0,,"Steag, Kraftwerk Lünen",evonik,
42442916,10.1589735554,51.64020732,substation,110000,50,,EON_Netz,
43072656,9.85139361305,51.6491352561,substation,110000,50,Hardegsen,TenneT-EON_Netz,Yes
41280772,10.3250688312,51.616522114,substation,110000,50,Pöhlde,Licht- und Kraftwerke Harz (Harz Energie),
99172517,12.9804731389,48.8475818709,substation,110000,,Umspannwerk Deggendorf,,
112556935,13.0157482369,48.7958824374,substation,110000,50,Umspannwerk Seebach,E.ON Netz,
112559991,12.8728151666,49.0715058766,substation,110000,50,Umspannwerk Viechtach,E.ON Netz GmbH,
57834546,12.9835413832,49.0433852932,station,0,,Umspannwerk Teisnach,E.ON Bayern,
37920796,11.3021645861,49.5120834561,substation,110000,,Umspannwerk Lauf-Ost,N-ERGIE Netz GmbH,
26831536,11.2004278473,49.466243153,substation,0,,Umspannwerk Schwaig,N-ERGIE Netz GmbH,
23700199,11.1477228497,49.4595829589,substation,110000,,Umspannwerk Rehhof,E.ON Netz GmbH,
33701487,11.2723586237,49.5058061284,substation,110000,,Umspannwerk Lauf-West,N-ERGIE Netz GmbH,
25157802,8.88604779159,52.2860507513,sub_station,110000,50,Minden/West,EON_WestfalenWeser,
27513557,8.86720318284,52.2669084651,sub_station,110000,50,Minden/Süd,EON_WestfalenWeser,
23141083,8.7371704171,52.220907164,sub_station,110000,50,Umspannwerk,Energieversorgung Westfalen-Weser AG,
28911211,8.65656376113,52.1956917698,substation,110000,50,Kirchlengern,EON_WestfalenWeser,
32056010,8.83615598155,52.212586939,sub_station,110000,50,Rehme,EON_Westfalen_Weser,
173046471,9.47935392558,51.3583246645,substation,0,50,,,
274630377,9.38765132402,51.6407335383,substation,110000,,Umspannanlage Würgassen,Tennet TSO,Yes
129169025,9.39222833558,51.5079480948,sub_station,0,,Umspannwerk,,
172996437,9.41924585923,51.4430880298,station,0,,,,
172997500,9.55881554454,51.3231962203,substation,110000,50,,EAM,
39243044,13.5370284536,52.5374809882,substation,110000,50,Umspannwerk Biesdorf Nord,Stromnetz Berlin,
159713512,11.6589433772,48.2590677752,substation,0,,Umspannwerk Garching,E.ON Netz GmbH,
53354164,11.7274215009,48.4077607432,substation,110000,50,Umspannwerk Freising/West,,
85284549,11.6257597462,48.3107876203,substation,110000,50,,EON_Netz,
28444859,11.5583960641,48.2830753866,substation,110000,,Umspannwerk Unterschleißheim,E.ON Netz GmbH,
30670163,11.7636138783,48.415140549,substation,110000,,Umspannwerk Freising/Nord,E.ON Netz GmbH,
133342285,11.807605699,48.4554268046,substation,110000,,Zolling - Irsching,,Yes
92749696,12.1809839949,48.1530321718,substation,110000,50,Umspannwerk Altdorf,,
92744658,12.1812928156,48.254017982,substation,110000,,Umspannwerk Stollnkirchen,,
92743297,12.485526343,48.2469552706,substation,0,,Umspannwerk Altmühldorf,,
92741434,12.3997155409,48.1966694937,substation,110000,,,,
92659081,12.3395061945,48.1536816441,substation,110000,,Umspannwerk Mittergars,,
75865676,12.1301906386,47.9131654927,substation,220000,,Umspannwerk Marienberg,Tennet TSO GmbH,
35932721,11.9110337505,48.2430979685,substation,110000,,Umspannwerk Wörth,EON_Netz- Sempt-Elektrizitätswerke Erding,
175071412,11.8699346405,51.2867559791,sub_station,0,,,,
173544077,11.6085944554,51.2984848963,sub_station,110000,,Umspannwerk Reinsdorf,enviaM,
163500062,8.74651527785,49.6073444537,substation,110000,50,,HSE,
32445322,8.71141203553,49.5738034254,substation,0,,Umspannwerk Birkenau,RWE,
32140076,8.84656588538,49.5869625111,station,0,,,RWE,
31648481,8.84996113668,49.7082200079,station,110000,50,,RWE,
32275585,8.62686937116,49.643964144,substation,110000,50,Umspannwerk Heppenheim,RWE,
152973139,8.54716101729,49.4405397604,substation,110000,50,Station Rheinau,Net,Yes
178630274,14.6996289721,51.1397785638,substation,110000,50,Umspannwerk Oppeln,ENSO,
157807291,14.2192283642,51.1207080075,substation,110000,,Umspannwerk Schmölln,50Hertz-ENSO,Yes
25043127,6.86804500654,51.3744748035,substation,110000,,Station Selbeck,,Yes
25043168,6.86444815099,51.3740482851,station,110000,,Station Selbeck,RWE,
154783000,8.96379002434,50.1211986044,substation,110000,50,Wolfgang,EON_Netz,
24060456,8.93042009651,50.1525331363,sub_station,110000,50,Hanau Nord,EON_Netz,
89178874,8.90314218897,50.1926332377,sub_station,110000,50,Brucköbel,EON_Netz,
89178399,8.86853367264,50.2197946543,sub_station,110000,50,Windecken,EON_Netz,
23881272,8.87300666785,50.1308545923,substation,110000,50,Dörnigheim 220 kV,EON_Netz,Yes
42411962,8.9546441829,50.086015759,substation,110000,50,Kraftwerkseinspeisung Staudinger,,Yes
25310391,9.09076723842,50.2845047376,substation,110000,,Umspannwerk,eon,
91259069,12.3342844434,47.8557262389,substation,110000,,Umspannwerk Prien,EON_Netz,
92701108,12.4474191484,47.7798362255,substation,110000,50,Umspannwerk Grassau,,
92695125,12.6565204382,47.815600729,substation,110000,,Umspannwerk Siegsdorf,,
91302943,12.5433625381,47.8496968514,substation,0,,Umspannwerk Grabenstätt,E.ON Netz GmbH,
99220683,12.1266932556,47.8539090252,substation,110000,50,,,
218758756,12.0896760023,47.8383608593,substation,110000,,Umspannwerk Pang,EON_Netz,
27648192,9.4830070498,52.4156108915,substation,15000,16.7,Unterwerk Wunstorf,DB_Energie,Yes
28050276,9.35497557432,53.1074876318,substation,15000,16.7,Unterwerk Rotenburg,DB_Energie,Yes
110419474,9.35174872595,53.1078790203,substation,15000,16.7,Unterwerk Rotenburg (Wümme),DB_Energie,Yes
28245752,9.22927149569,52.7924055345,substation,15000,16.7,Eystrup,DB_Energie,Yes
29072396,8.71014529109,52.1949579353,substation,15000,16.7,Unterwerk Löhne,DB_Energie,Yes
193392029,8.51110943998,52.707330641,substation,15000,16.7,Unterwerk Barnstorf,DB_Energie,Yes
28777197,8.11789658006,52.2656533399,substation,15000,16.7,Unterwerk Osnabrück,DB_Energie,Yes
132260092,9.44557063115,52.140589148,substation,15000,16.7,Unterwerk Hameln,DB_Energie,Yes
23947399,9.83513332023,52.2670341763,substation,15000,16.7,Unterwerk Rethen,DB_Energie,Yes
20562114,13.4947634287,52.5897644694,substation,110000,50,Umspannwerk Malchow,50Hertz-Stromnetz Berlin,Yes
24517761,13.5813944935,52.5117274927,substation,110000,50,Umspannwerk Münsterberger Weg,Vattenfall Europe AG,
43165578,13.4879826647,52.6174544292,substation,110000,50,Umspannwerk Karow,Stromnetz Berlin,
46337810,13.4129017635,52.5886830129,substation,110000,50,Umspannwerk Niederschönhausen,Vattenfall Europe AG,
22981090,13.5591357009,52.5893329274,generator,110000,50,Gasturbinenkraftwerk Ahrensfelde,Vattenfall Europe AG,
53617348,13.4204141512,52.5559830213,substation,0,,,,
70875851,9.05119427807,50.0818009528,substation,0,,,,
42452069,9.04532888644,50.0454872654,station,0,,Umspannwerk Hörstein,E.ON Netz GmbH,
194899595,9.07800172666,49.9695927508,substation,110000,,,,
48965300,9.13078413013,49.9557096117,substation,0,,Umspannanlage Schweinheim,RWE-Stadtwerke Aschaffenburg,
96431346,9.04408525027,50.0202000038,station,0,,Umspannanlage Kleinostheim,RWE,
43217067,8.98564202793,50.0574583342,substation,110000,50,Kahl,RWE,
148509764,8.97342788032,50.0542942201,station,0,,,,
55069713,9.09051758008,49.9700413988,substation,110000,50,Umspannwerk Aschaffenburg,TenneT TSO GmbH-E.ON Netz GmbH,Yes
59581814,12.0694452395,54.1600460634,substation,110000,50,Warnemünde,E.ON edis AG,
33571538,12.0621335644,54.1044722599,substation,110000,,Umspannwerk Schutow,E.ON edis AG,
37732550,8.52243073099,53.5280055436,substation,0,50,Grebswarden,EON_Netz,
37932525,8.5449385057,53.5285754666,substation,110000,50,Blexen,EON_Netz,
32076853,8.47470705829,53.4286512121,substation,110000,50,Unterweser,EON_Netz,Yes
107882496,8.60792000504,53.1531848758,substation,0,50,Lemwerder,EON_Netz,
24493551,8.56374402467,53.031721606,substation,110000,50,Ganderkesee,TenneT-EON_Netz-EWE,Yes
24494467,8.65172403998,53.0719693627,substation,0,50,Delmenhorst Nord,EON_Netz,
30603317,8.47593103743,53.1073422379,substation,0,50,Hude,EON_Netz,
30603225,8.49240740627,53.1887085521,substation,0,50,Berne,EON_Netz,
42878559,8.45793718847,53.2232302294,substation,0,,Elsfleth,EON_Netz,
37932355,8.29993767045,53.5477108778,substation,110000,50,,EON_Netz,
37732551,8.4986703931,53.5088191266,substation,110000,50,Weserzink,EON_Netz,
155331647,10.4106322352,48.5587897577,substation,0,,,,
155331645,10.375131887,48.5416071249,substation,0,,,,
33017057,9.45636715308,53.6591449167,substation,110000,50,,EON_Netz,
31927411,9.06881377171,53.5666351324,substation,110000,50,Alfstedt,EON_Netz,Yes
33044957,9.26753454711,53.5884415676,substation,110000,50,Oldendorf,EON_Netz,
157418967,9.42230509661,53.5956246522,substation,110000,50,,,
175218904,12.5245465171,50.5146990413,substation,110000,50,,,
167352587,12.2428369607,50.5674531847,substation,110000,50,Umspannwerk Herlasgrün,50Hertz-enviaM,Yes
64004313,11.8355612374,51.4241064506,substation,0,50,Angersdorf,MITNETZ,
29713902,11.8942662085,51.405703178,substation,110000,50,Umspannwerk Lauchstädt,50Hertz-enviaM,Yes
150359827,11.712839267,51.4609986522,substation,0,,,,
35018850,11.742554668,51.4649820652,substation,110000,50,Umspannwerk Wansleben,enviaM,
28246234,7.62733621027,51.5522467314,sub_station,0,,,,
145814205,7.63633035728,51.5063356947,substation,110000,50,,,
33883956,7.71842850353,51.6740967914,plant,0,,,RWE Gersteinwerk,
36774108,8.45992193429,48.0963324914,substation,110000,50,Umspannwerk Obereschach,Energiedienst,
87206703,8.20871743739,48.1143810837,substation,0,,Umspannwerk Schönwald,EGT Energie GmbH,
27938090,8.34201011554,48.1251737684,station,0,,,EGT Energie GmbH,
42049947,8.4654298164,48.0435236523,substation,110000,50,Umspannwerk Villingen,EnBW- Energiedienst,Yes
35954395,8.61664770596,48.0659538546,substation,110000,50,Umspannwerk Trossingen,,Yes
42146275,8.54957748976,48.0607733481,station,0,,Umspannwerk Schwenningen,,
305251907,8.38158084351,48.2299116233,substation,0,,,,
127440760,8.48996360175,48.2612255172,substation,110000,50,,,
25051358,7.1062143947,51.6006558268,substation,0,,Station Herten,RWE- Stadtwerke Herten,
25033608,7.14065078244,51.5572478855,substation,110000,,Station Wanne,RWE,
91854336,6.72376717934,51.3556543955,substation,110000,50,Station Mündelheim,RWE,Yes
87767090,6.9971836075,51.2501055827,substation,0,50,Station Mettmann,RWE,
152122912,6.94418539868,51.2783912565,substation,0,,,,
23192640,6.82804663323,51.1626523772,substation,110000,50,Station Reisholz,,Yes
93087786,6.86858914534,51.2886575601,substation,110000,,Station Schwarzbach,RWE,
73968154,6.82242865723,51.3425162813,substation,110000,50,Station Lintorf,RWE,
32348182,6.87643024641,51.4348449202,substation,0,,Station Mülheim,RWE,
25032036,6.87287367578,51.4457833914,substation,110000,50,Styrum,,Yes
28737761,6.9164777462,50.7995367352,substation,0,,Station Schwadorf,RWE,
25213647,6.91640684397,50.8433156021,substation,110000,50,Station Eisenwerk,RWE,
22765517,6.84265069037,50.8635385174,substation,110000,,Station Knapsack,Amprion,Yes
22766160,6.97257748892,50.7956930167,substation,110000,,Station Sechtem,,Yes
74724731,14.0931099466,53.6758746381,substation,110000,50,Eggesin,E.ON edis AG,
79799698,14.0594741266,53.7263160115,substation,0,50,Ueckermünde,E.ON edis AG,
149786335,13.545869288,53.6772973783,substation,0,50,Friedland,EON_edis,
149786336,13.5466501382,53.6787283253,substation,0,50,,EON_edis,
170140411,13.6759389946,53.7393897011,substation,110000,50,Schwerinsburg,EON_edis,
263335952,13.7455556979,53.7801901381,substation,0,,Neu Kosenow,EON_edis,
30920933,13.6629338006,53.8520975623,substation,0,50,Anklam,E.ON edis AG,
39437430,14.0336963902,53.5078685941,substation,110000,,Pasewalk,50Hertz Transmission GmbH-E.ON edis AG,Yes
149740914,13.9969877678,53.6384071747,substation,0,,Torgelow,EON_edis,
27197669,11.3308866564,48.1083289757,substation,15000,16.7,Unterwerk Geisenbrunn,DB_Energie,Yes
42298171,11.3381407363,47.6298870501,plant,0,50;16.7,Walchenseekraftwerk,E.ON Wasserkraft GmbH,
372809959,9.73637884096,52.3731643189,substation,0,,Johannishof,enercity Netzgesellschaft mbH,
59322749,9.74218812089,52.367207818,substation,0,,,,
37189947,9.72780958722,52.3872268008,substation,110000,50,Sandstraße,enercity Netzgesellschaft mbH,
257429543,12.6948443305,52.3270434408,substation,110000,50,Netzen,,
55694205,12.7331506513,52.3230377405,substation,110000,50,Lehnin,EON_edis,
205969534,12.6266325808,52.3363369817,substation,110000,50,Prützke,,
257429534,12.6264272323,52.3356021165,substation,110000,50,Prützke Süd,,
157520746,12.5407727666,52.111047799,substation,15000,16.7,Unterwerk Borne,DB_Energie,Yes
49967909,12.3502289832,51.6587790737,substation,15000,16.7,Unterwerk Muldenstein,DB_Energie,Yes
23993518,12.312968978,51.3822077972,substation,15000,16.7,Unterwerk Leipzig-Wahren,DB_Energie,Yes
40153639,12.1035097848,51.5596964221,substation,15000,16.7,Unterwerk Niemberg,DB_Energie,Yes
154078303,12.7460144958,51.3631094505,substation,15000,16.7,Unterwerk Wurzen,DB_Energie,Yes
200485583,13.4035382868,51.2923646853,substation,110000,50,,,
157328339,13.3823234132,51.35599618,substation,110000,50,Umspannwerk Streumen,50Hertz,Yes
148087099,13.7330548861,51.2139786186,substation,110000,50,Umspannwerk Radeburg,ENSO,
45490898,13.9440680776,50.9809881864,substation,110000,50,Umspannwerk Pirna-Copitz Steinhügelweg,,
25358758,13.8351583953,50.9941363561,substation,15000,50;16.7,Zentrales Bahnstromumformerwerk Dresden-Niedersedlitz,DB_Energie,Yes
23241863,13.8412681302,50.9901759707,substation,110000,50,Umspannwerk DD-Süd,Vattenfall-ENSO Strom AG-DREWAG,Yes
149263207,14.2504843302,50.9694147805,substation,110000,50,Umspannwerk Sebnitz,ENSO,
296009976,14.1949449568,51.124582174,substation,110000,,Umspannwerk Bischofswerda,,
60570171,14.4331400492,51.1031619479,substation,110000,50,Umspannwerk Rodewitz,ENSO,
28217542,14.5499803167,51.0358901859,substation,110000,50,,ENSO,
59026011,14.9506690726,51.0607477365,substation,110000,,,access,
49273386,14.7741880321,50.9046754249,substation,20000,50,Umspannwerk Zittau,ENSO,Yes
60570173,14.4265213792,51.0547190879,substation,110000,50,Umspannwerk Sohland,ENSO,
25093290,13.7937925663,51.1574364415,substation,110000,50,Umspannwerk Weixdorf,enso,
39425889,13.5458665087,51.2355138481,substation,15000,16.7,Unterwerk Böhla,DB_Energie,Yes
62358454,13.3191969068,51.1921954962,substation,110000,50,Umspannwerk Lommatzsch,enso,
154078305,12.9382038996,50.8620464931,substation,15000,16.7,Unterwerk Chemnitz,DB_Energie,Yes
45495403,13.6602196365,51.0765474177,substation,15000,16.7,Unterwerk Stetzsch,DB_Energie,Yes
40151235,13.2670969258,51.3113803412,substation,15000,16.7,Unterwerk Riesa,DB_Energie,Yes
149631265,12.8737951074,52.0931861972,substation,0,,Treuenbrietzen,EON_edis,
50661494,12.8843930176,52.0933033472,substation,110000,,,access,
50661481,12.9547481432,52.1070755169,substation,110000,50,Bardenitz,,
210973107,12.7811997177,52.0798128329,substation,0,,Neu Rietz,,
56049285,12.5397276382,52.155676669,substation,110000,50,Lübnitz,EON_edis,
209794462,12.5613174148,52.3455203842,generator,0,,Solarkraftwerk Reckahn I,,
87400685,10.806834649,48.2636707741,substation,0,,Umspannwerk Bobingen,LEW,
24894800,10.8792866916,48.3262450094,substation,0,,Übernahmestelle Göggingen-Umspannwerk Göggingen,Stadtwerke Augsburg-Lechwerke AG,
50917841,10.8431576013,48.402351622,substation,0,,Umspannwerk Neusäß,Lech Elektrizitätswerke Augsburg,
51245080,10.8399638065,48.3773528415,substation,0,,,,
30613895,10.8408696021,48.238031017,substation,110000,50,Umspannwerk Oberottmarshausen,Lech-Elektrizitätswerke,Yes
34906357,11.612231344,52.2546818958,substation,110000,50,Umspannwerk Wolmirstedt 110 Kv,Avacon AG,
27177809,11.7907345995,52.4294029886,substation,110000,,Umspannwerk Tangerhütte,Avacon,
149467873,11.6707489319,52.3025823286,substation,0,,Zielitz,,
26530266,11.5631427699,52.123978499,substation,110000,50,Magdeburg (EON Avacon),EON_Avacon,
35031884,11.6234064634,52.189641209,substation,110000,50,Barleben,HSN,
165993172,11.1294590354,53.7117213197,substation,110000,50,Gardebusch,EON_edis,
88839405,10.9456728564,53.8409904122,substation,0,50,Schönberg,EON_edis,
206679946,11.0294720081,53.7795564482,substation,110000,50,Rehna,EON_Netz,
173660734,11.7151621401,51.5875787648,substation,110000,50,,,
437233555,11.714706249,51.5877150369,substation,110000,50,,,
44884223,7.569729615,49.4192091851,substation,0,,,Pfalzwerke,
204398088,7.46131798347,49.4101890254,substation,0,,,,
152125599,7.49001224056,49.4043268178,substation,0,,,,
156501273,7.70135610903,49.4385736197,substation,0,,,way_area,
110864083,7.60934555718,49.2649695873,substation,0,,Biebermühle,Pfalzwerke AG,
119522657,7.70762985562,49.3239085207,substation,0,,Geiselberg,Pfalzwerke Netz AG,
156501276,7.67356397818,49.4342819719,substation,0,,Einsiedlerhof,Pfalzwerke Netz AG,
92692523,12.224432885,48.0464478014,substation,0,,,,
92701104,12.1555348128,47.9613170097,substation,0,,,,
51814660,11.5108133297,48.7184809374,substation,0,,Umspannwerk Manching,,
92916590,11.7017027135,48.7612394053,substation,110000,50,Umspannwerk Münchsmünster,E.ON Netz GmbH,
133172424,11.7612565579,48.789317645,substation,110000,50,Umspannwerk Neustadt an der Donau,,
24768051,11.5077306291,48.7611239827,substation,110000,50,Ingolstadt,,Yes
38773004,11.1890970074,48.2161780455,substation,15000,16.7,Unterwerk Nannhofen,DB_Energie,Yes
39184170,11.030252435,48.105847425,substation,15000,16.7,Unterwerk Geltendorf,DB_Energie,Yes
28882537,11.444494399,48.1523913372,substation,15000,16.7,Unterwerk Pasing,DB_Energie,Yes
27052080,11.43519201,48.2159623589,substation,110000,50;16.7,Umspannwerk Karlsfeld/West,E.ON Netz GmbH,
29996007,10.8665973177,48.3986901698,substation,15000,16.7,Unterwerk Augsburg,DB_Energie,Yes
28213517,10.1301785558,52.6463815865,substation,110000,50,Bostel,EON_Netz,
28343115,10.3851615397,52.9953934895,substation,110000,50,Stadorf,EON_Netz,
32513986,10.2902346115,52.8502258246,substation,0,,Unterlüß,EON_Netz,
156335345,10.2466280674,52.6271997694,substation,0,50,Lachendorf,EON_Netz,
28213821,9.93399925481,52.65761367,substation,110000,50,Oldau,EON_Netz,
33042984,9.91814868737,52.3799963378,substation,110000,50,TenneT TSO GmbH - Betriebszentrum Lehrte,TenneT_TSO,Yes
27994293,10.1103767001,52.473483194,substation,110000,50,Hänigsen,EON_Netz,
366297706,10.0931987677,52.5874937224,substation,110000,50,Burg/Celle,EON_Netz,
145228197,11.9895162608,51.764820757,substation,110000,50,Umspannwerk Köthen,enviam,
25526912,12.2621735445,51.7410202813,substation,110000,50,Umspannwerk Marke,50Hertz,Yes
32690742,11.5165549994,51.5843592162,substation,110000,50,Umspannwerk Klostermansfeld,50Hertz,Yes
40821008,10.4447362998,49.3067133997,substation,110000,50,Umspannwerk Leutershausen,,
25843019,10.2429646641,49.4170741121,substation,110000,50,Umspannwerk Hartershofen,N-ERGIE,
25843016,10.1998458729,49.3731186245,substation,110000,,Umspannwerk Rothenburg,,
42213146,10.6209975912,49.2477799215,substation,110000,,Umspannwerk Winterschneidbach,N-ergie,
150126865,8.67187401058,49.9306945218,substation,110000,50,,,
28369264,8.63619602134,49.8477433166,substation,110000,,Umspannanlage Süd,HSE HEAG Südhessische Energie AG,
147521567,8.58869053016,49.8155140536,substation,110000,50,Umspannanlage Pfungstadt,RWE,Yes
28369864,8.62382277986,49.8736306972,station,0,,,HEAG,
147476657,8.90419399671,49.449867005,station,0,,Umspannanlage Hirschhorn,,
23284340,8.77244299222,49.9746686768,substation,110000,,Umspannwerk Urberach,RWE,Yes
196991814,10.4886549349,53.510147499,substation,110000,50,Schwarzenbek,Schleswig-Holstein Netz AG,
98399164,10.5382977813,53.3863443361,substation,110000,50,Lauenburg/Elbe,,
97337277,10.4833311776,53.6855279984,substation,110000,50,,Schleswig-Holstein Netz AG,
208672835,10.596686832,53.8245060897,substation,110000,50,Niendorf,Schleswig-Holstein Netz,
89195343,10.6665494466,53.6226305151,substation,11000,50,Umspannwerk Mölln West,Schleswig-Holstein Netz AG,Yes
25943536,8.8351628089,51.7881709454,substation,110000,50,Umspannwerk Bad Lippspringe,EON_Netz,
42566285,8.96192391543,51.8742561692,substation,110000,50,,,
289260704,8.95539532844,51.7671501999,substation,110000,50,,,
64856342,12.3942095887,52.3879649672,substation,110000,50,Kirchmöser,EON_edis,
257448385,12.3838833523,52.3906561599,substation,110000,50,,,
202610156,12.46246975,52.4706903146,substation,110000,50,,,
55562108,12.3551965478,52.52726071,substation,110000,50,Premnitz,EON_edis,
30918818,12.3579413974,52.6020229431,substation,110000,50,Rathenow,EON_edis,
27149550,12.9416466492,52.5621144029,substation,110000,,Wustermark,50Hertz Transmission GmbH-E.ON edis AG,Yes
95421165,12.5207461635,52.41859988,substation,110000,,,E.ON edis AG,
257776513,12.39032266,52.4678984196,substation,110000,50,Möthlitz,EON_edis,
257476894,12.2516722102,52.4517920643,substation,110000,50,Wusterwitz,,
138649883,7.16998474949,51.5030911813,station,0,,Station Hannover,RWE,
106446798,7.17075248289,51.5025355294,station,0,,Umspannanlage Berthastraße,Stadtwerke Bochum,
106827824,11.3275570864,53.2242284351,substation,110000,50,,,
149776866,11.207796597,53.423060996,substation,110000,50,Hagenow,WEMAG,
106827835,11.4905835622,53.312261762,substation,110000,50,,WEMAG,
202432802,14.0940284142,52.3456030254,substation,110000,50,,EON_edis,
226408613,14.4116129348,52.3316792758,substation,0,50,,E.ON edis AG,
149739926,14.3150909252,52.3525631334,substation,110000,50,,,
179172282,14.0823430909,52.3800089366,substation,110000,50,,EON_edis,
158099847,11.3738067214,51.783495424,substation,0,,,,
119612646,11.3557022763,51.7895681514,substation,110000,50,,enviaM,
57377061,9.77746702392,48.9859034572,substation,0,,,,
95250413,9.7112901959,49.1016749347,substation,110000,,,,
362202373,9.65629154434,48.842446332,substation,110000,,Umspannwerk Pfahlbronn,Netze BW,
97825257,9.23527053349,48.9262990592,substation,0,,,,
42050342,10.1174867468,48.8971053681,substation,110000,,Umspannwerk Goldshöfe,EnBW,Yes
362090545,11.9917993555,48.4413153645,substation,0,16.7,,EON_Wasserkraft,Yes
39131226,11.9913184391,48.4412582265,substation,0,,Umspannwerk Pfrombach,E.ON Netz GmbH,
146387694,12.6284134926,47.8684112461,substation,15000,16.7,Unterwerk Traunstein,DB_Energie,Yes
92792348,12.862443056,47.7182831357,substation,110000,16.7,,DB_Energie,
44158317,12.9024627925,47.7475221873,substation,0,,,,
33463751,12.927801911,47.7740146552,substation,110000,50,Umspannwerk Hirschloh,Bayernwerk AG,
32493406,13.2401795096,47.9667423787,substation,15000,16.7,Unterwerk Steindorf,ÖBB,Yes
48416828,12.1328480498,47.84570905,substation,110000,,Unterwerk Rosenheim,,
60670248,8.07725193053,53.5613329836,substation,110000,50,Coldewei,EON_Netz,
26456372,8.12649527198,53.5518348562,substation,110000,50,Rüstersiel,EON_Netz,
26455019,8.08565060816,53.6058342195,substation,110000,50,Umspannwerk Voslapp,TenneT-EON_Netz,Yes
26470129,8.14191383627,53.5640011818,plant,0,,Uniper Kraftwerk Wilhelmshaven,EON_Netz,
48070953,11.7112556394,47.722745455,substation,110000,50,Umspannwerk Bad Wiessee,E.ON Netz GmbH,
48066661,11.6826775447,47.7782159215,substation,110000,,Umspannwerk Waakirchen,EON_Netz,
87212330,7.87821048047,51.3417328873,substation,110000,50,,,
42802840,7.97676939773,51.3628849824,substation,110000,50,,,
25198891,10.7623884653,48.7138685215,substation,0,,,barrier,
89089349,10.843326269,48.8396483176,substation,0,,,,
24816878,10.6854172968,48.77680647,substation,0,,,,
96119483,10.6301604548,48.9004056945,substation,110000,50,Umspannwerk Wechingen,EnBW ODR,
96119453,10.4925919005,48.8578404855,substation,110000,50,,,
202279124,10.3504571465,48.8857501178,substation,0,,,,
134446294,10.2970158345,48.7640034195,substation,110000,,,,
89350601,10.6984642298,48.7755075442,station,0,,,,
90149427,10.6464110862,48.6323676085,substation,0,,,,
188291037,10.5723125981,48.6066041066,substation,110000,,Umspannwerk Höchstädt,,
89292169,10.4902332238,48.5825368137,substation,110000,,,,
25012779,10.8273075347,48.6787692088,substation,0,,,LEW,
26498427,10.8033007621,48.7253603962,substation,110000,50,,,
175848809,13.0972561723,51.3184377938,substation,110000,50,,,
29177271,12.9880034578,51.577078731,substation,110000,50,Umspannwerk Zinna,,
176243604,12.9187608757,51.6720336803,substation,110000,50,Umspannwerk Prettin,,
244138569,13.2309982492,51.5710542787,substation,0,,,Envia,
159650446,13.1127210788,51.4704224933,substation,110000,50,Umspannwerk Belgern,enviaM,
27173167,9.81157719243,52.4301755845,substation,110000,50,,EON_Netz,
27173233,9.79243904052,52.4318281298,substation,110000,50,,EON_Netz,
24492995,9.83891439132,52.4391565903,substation,110000,50,Altwarmbüchen,EON_Netz,
370078125,9.85408874584,52.4122533345,substation,0,,,,
175194417,12.8856812992,50.8281178586,substation,110000,50,Umspannwerk Kappel,,
23117075,12.8137689575,50.8578879854,substation,110000,50,Umspannwerk Röhrsdorf,50Hertz,Yes
89710643,10.9463352821,48.6065510452,substation,0,,,,
189063476,7.56604726058,52.1551135503,substation,110000,,Emsdetten Wilmersstraße,Stadtwerke Emsdetten,
27138985,7.6001048411,52.0848172597,substation,110000,,Station Greven,RWE,
25506770,7.54571775349,51.9703244533,substation,110000,50,Station Roxel,RWE,Yes
150256501,7.12796591832,52.3026064298,substation,110000,,,,
150256499,7.07239424977,52.4183531607,substation,110000,,,,
53179035,7.23046790308,52.3170826871,substation,110000,,Umspannwerk,,
375106083,7.31914124887,52.3244485356,substation,0,,,RWE,
60261691,7.30946336714,52.392974991,sub_station,110000,50,,RWE,
61918154,7.30824781629,52.4767901584,substation,110000,50,Hanekenfähr,Amprion,Yes
318508009,7.31827440275,52.5623271441,substation,110000,,,,
88495019,7.34579760917,52.5865082661,substation,110000,,,,
114389456,7.54052582574,52.4802693317,substation,110000,50,Station Freren,RWE,
115716599,7.37053560494,52.3398422192,substation,110000,,Holsten-Bexten,,
70704834,7.43458102161,52.2994123872,substation,110000,50,Altenrheine,EWR,
107899778,7.44156020665,52.2623829828,substation,110000,50,Station Rheine,RWE,
189069707,7.52673247476,52.1817020047,substation,110000,,Station Emsdetten,RWE,
193800926,13.8000159984,51.8517829953,substation,110000,50,,,
175417682,13.8700819639,51.9481271782,substation,110000,50,Umspannwerk Lübben,,
156683994,13.9024347133,51.8747235301,substation,110000,50,Umspannwerk Ragow,50Hertz,Yes
193800922,13.8152434116,51.8549663909,substation,110000,50,,,
123059842,7.64864392288,51.660658501,substation,110000,50,Station Werne,RWE,
4670340,7.61702105013,51.6371337811,plant,0,,Kraftwerk Bergkamen,RWE- evonik,
44502985,7.61026089707,51.6156415896,substation,110000,50,Station Weddinghofen,RWE,
42509500,7.62934995571,51.627472567,substation,110000,50,Station Schering,,
42507488,7.70831851901,51.6762033258,substation,110000,50,Station Gersteinwerk,Amprion,Yes
30135690,8.76141624603,52.0740425307,substation,110000,50,Umspannwerk Schötmar,EON Westfalen Weser,
42734372,8.85635693636,52.0346201648,substation,110000,50,,,
95436853,7.21612777732,52.542835183,substation,110000,,,,
93552961,13.238124094,53.6821341062,substation,110000,50,Altentreptow,EON_edis,
369593294,13.2378936737,53.6814844236,substation,110000,50,Altentreptow Wind,EON_edis,
369593299,13.1907263008,53.6488260269,substation,0,,,EON_edis,
369596692,13.2800555398,53.5701110979,substation,110000,50,Neubrandenburg,EON_edis,
29082962,13.0434567095,53.4060880547,substation,110000,50,Neustrelitz,EON_edis,
29082960,13.0457570699,53.4086262558,substation,15000,50;16.67,Umrichterwerk Adamsdorf,DB_Energie,Yes
199522625,13.1833888403,53.6422521664,substation,0,,Teetzleben,EON_edis,
369594758,13.2375747964,53.6813120521,substation,110000,50,Altentreptow Wind,EON_edis,
369594757,13.2373814901,53.6811680831,substation,110000,50,Altentreptow Wind,EON_edis,
55443780,11.9465331774,51.4012177578,substation,110000,16.7,Schaltwerk Schkopau,DB_Energie,
177530227,11.5424376787,51.2056165723,substation,15000,16.7,Unterwerk Saubachtal,DB_Energie,Yes
289604503,11.1921498868,51.055112917,substation,15000,16.7,Unterwerk Bachstedt,DB_Energie,Yes
154078304,11.6553360554,51.1062233191,substation,15000,16.7,Unterwerk Großheringen,DB_Energie,Yes
29484268,12.0206807347,51.253433479,substation,15000,16.7,Unterwerk Großkorbetha,DB_Energie,Yes
29481661,11.3438145053,50.991084625,substation,15000,16.7,Unterwerk Weimar,DB_Energie,Yes
89063910,11.3812021687,50.4362150191,substation,15000,16.7,Unterwerk Steinbach am Wald,DB_Energie,Yes
37213786,10.9613874831,50.0834427726,substation,15000,16.7,Unterwerk Ebensfeld,DB_Energie,Yes
29485562,11.3763780031,50.6450355011,substation,15000,16.7,Unterwerk Saalfeld,DB_Energie,Yes
29487085,10.3719517919,50.9641745308,substation,15000,16.7,Unterwerk Eisenach,DB_Energie,Yes
35359141,9.92551299149,51.3762083745,substation,15000,16.7,Unterwerk Eichenberg,DB_Energie,Yes
35406351,9.7898060834,50.9755930843,substation,15000,16.7,Unterwerk Bebra,DB_Energie,Yes
34057624,10.894095876,50.9083457778,substation,15000,16.7,Unterwerk Neudietendorf,DB_Energie,Yes
284310636,10.9913217499,50.8728719058,substation,15000,16.7,Unterwerk Eischleben,DB Energie GmbH,Yes
218161891,11.9496921625,51.3993890758,plant,0,,Kraftwerk Schkopau,E.ON,
39357153,9.20961022167,52.6640439273,substation,110000,50,Nienburg/Nord,EON_Avacon,
118978994,9.21050703792,52.6881343778,substation,0,,Wasserkraftwerk Drakenburg,EON,
27738565,9.24098179843,52.6354565557,substation,110000,50,Nienburg/Ost,EON_Netz,
28812249,9.14517688151,52.8532464493,substation,110000,50,Wechold,TenneT TSO GmbH-Avacon AG,Yes
162914634,11.1364553188,50.3662261564,substation,20000,,Umspannwerk Mürschnitz,Thüringer_Energienetze,Yes
149050162,11.1995368345,50.3501691514,substation,0,,Umspannwerk Köppelsdorf,,
191928395,11.2495629515,50.3002420353,substation,0,,Umspannwerk Neuhaus-Schierschnitz,Thüringer_Energienetze,
137475556,11.2305811415,50.5304972138,substation,110000,50,Taubenbach,Thüringer_Energienetze,
173942747,10.7502432674,50.4307173887,substation,20000,,Umspannwerk Hildburghausen,Thüringer_Energienetze,Yes
150806862,11.8387738356,47.7951353975,substation,0,,,,
92284353,11.8423683528,47.7516672617,substation,110000,50,Umspannwerk Hausham,E.ON Netz GmbH,
56322291,11.871110185,47.8725246003,substation,110000,50,Umspannwerk Vagen,EON_Netz,
41585685,12.0438161245,47.8502716234,substation,0,,Umspannwerk Kolbermoor,E.ON Netz GmbH,
172108084,12.0018654908,47.8504187895,substation,110000,50,Umspannwerk Bad Aibling,E.ON Netz GmbH,
98640208,9.03861521897,54.1797820512,substation,110000,50,Umspannwerk Wöhrden,Schleswig-Holstein Netz AG,
65104367,9.10759140179,54.1868082027,substation,110000,50,Heide,EON_Netz,
97870164,10.9715783238,52.1293718619,substation,110000,50,,EON_Netz,
28196593,10.5717483783,52.1643314486,substation,110000,50,,EON_Netz,
28196333,10.4507682224,52.1850670309,substation,110000,50,VW Salzgitter,Volkswagen AG Werk Salzgitter,
24581685,10.5260076924,52.1672936958,substation,110000,50,Wolfenbüttel Nord,,
34698657,10.5656653922,52.2403334792,substation,110000,50,Moritzburg,EON_Netz,
54054056,10.5014262011,51.9291083295,substation,110000,,,access,
303556290,10.6444711841,52.0672069744,substation,110000,,,barrier,
257492053,10.7765756834,52.0800997281,substation,110000,50,,EON_Netz,
236479139,10.9202646081,52.1206718531,substation,110000,,,barrier,
199370000,10.9963419995,52.1529597899,substation,110000,,,,
26474983,11.0056130928,52.1956237376,substation,110000,,Umspannwerk Helmstedt,E.ON Netz GmbH,
117736732,10.5402637558,52.0162574156,substation,110000,50,,EON_Netz,
126991593,10.4476858044,52.0717919746,substation,110000,50,Umspannwerk Ohlendorf,,
150395563,10.3238477828,52.109454668,substation,110000,,,access,
285389487,10.7698948805,52.1528671855,substation,110000,50,Schöppenstedt,EON_Netz,
60612951,8.22383268378,52.9539170192,substation,110000,50,Sage,EON_Netz,
32425906,8.16360534479,53.0787460801,substation,110000,50,Oberlethe,EON_Netz,
50643383,8.08289590533,52.8579875431,substation,110000,50,Cloppenburg 110 kV,EON_Netz,
60801253,7.87623438041,53.0168989973,substation,110000,50,Friesoythe,EON_Netz,
60801242,8.02729694391,52.9642533454,substation,110000,50,Garrel,EON_Netz,
109376087,8.23961038725,52.9283783604,substation,110000,50,Großenkneten,EON_Netz,
86966617,12.2876893928,51.3444196584,substation,110000,50,Metallguß,,
24055189,12.345666443,51.376638441,substation,110000,50,Umspannwerk Leipzig Nord,Stadtwerke Leipzig,
329475295,12.2893128702,51.4010775811,substation,110000,50,,,
31903938,12.0191170875,51.4752016578,substation,110000,50,,enviaM,
157104509,12.02526857,51.3122333541,substation,110000,50,,,
174415137,12.0672285974,51.3108165114,substation,110000,50,,MITNETZ,
160251291,12.1885156655,51.3986352831,substation,110000,50,,enviaM,
280435282,12.2802158701,51.3062811966,sub_station,110000,50,Lausen,Stadtwerke Leipzig,
22879599,12.2488239334,51.1978824552,substation,110000,50,Umspannwerk Großdalzig,50Hertz Transmission-enviaM,Yes
22901676,12.2323650823,51.2926534953,substation,0,,Kulkwitz,,
201204058,14.0344513091,51.1449860262,substation,110000,50,Umspannwerk Großröhrsdorf,,
201204059,13.9056503368,51.1128663976,substation,110000,,,,
142267491,13.9049420373,51.1099357369,substation,0,,,,
133194076,9.57034323571,49.8270808058,station,0,,,,
24765111,9.59430167337,49.7984427354,substation,110000,50,Umspannwerk Trennfeld,TenneT TSO GmbH-E.ON Netz GmbH,Yes
150279447,12.9050452583,50.6870961062,sub_station,0,,,,
38363489,7.05815160079,51.2551808203,station,0,,,RWE,
88801340,11.4703438255,53.9110691674,substation,0,50,Haffeld,E.ON edis AG,
122896259,11.471241575,53.9110287044,substation,0,50,Haffeld Ost,E.ON edis AG,
106701284,11.5940752335,53.9204141323,substation,110000,50,Kalsow,,
312602916,11.910496123,53.8845984384,substation,0,,Trechow,,
50845507,11.9536592238,53.8751548655,substation,0,50,,,
50845510,11.9601356361,53.8459672871,substation,110000,50,Umspannwerk Bützow,WEMAG,
29388809,11.9843896207,53.8251432422,substation,15000,50;16.67,Umformerwerk Bützow,DB_Energie,Yes
50844956,12.1162604712,53.8331356514,substation,110000,,,access,
39690368,12.1857652408,53.8108598323,substation,110000,,Güstrow,EON_edis,Yes
168978205,11.4546124373,53.8815809808,substation,110000,50,Wismar,E.ON edis AG,
88798643,11.5551202841,53.8949913334,substation,0,,Benz,E.ON edis AG,
30089578,8.11820802128,52.1018805623,substation,110000,,,,
39229429,8.31888929686,52.0660374671,substation,110000,50,Station Hesseln,RWE,Yes
84131500,8.195404738,52.0924455699,substation,110000,,,,
42493229,8.14621140701,52.054429195,substation,110000,,,,
97841543,7.99626571853,52.1058919081,substation,110000,,,,
150204486,7.88324562159,52.1796786071,substation,110000,,,,
99021917,8.04346195593,52.1465988777,substation,110000,,,,
27173279,9.74607101902,52.4278528743,substation,110000,50,,EON_Netz,
441508213,7.9039610793,51.2242769674,station,0,,,,
157537789,7.98642345244,51.2249337495,substation,110000,,,,
83916207,7.70635767084,51.2785803248,substation,110000,,Elverlingsen,markE,Yes
148926236,7.84666501029,51.2342699072,station,0,,,markE,
146333205,7.82547998185,51.19775531,substation,110000,,Holthausen,,
146882934,9.65608049329,50.2788660597,substation,15000,16.7,Unterwerk Mottgers,DB_Energie,Yes
176159864,9.58717550655,50.8780676502,substation,15000,16.7,Unterwerk Kirchheim,DB_Energie,Yes
29881618,9.69116420989,50.544570136,substation,15000,16.7,Unterwerk Fulda,DB Energie GmbH,Yes
83198329,10.5990249244,48.2107294979,substation,0,,Umspannwerk Walkertshofen,Lech Elektrizitätswerke Augsburg (LEW),
24052090,10.7576371903,52.4352553505,substation,110000,,Umspannwerk Wolfsburg,EON_Netz,
24052130,10.7329814786,52.4131938564,sub_station,110000,50,Umspannwerk Fallersleben,EON_Netz,
439114623,10.7637737529,52.4421581061,plant,0,,Heizkraftwerk Wolfsburg West,VW Kraftwerk GmbH,
60924289,11.5963484147,49.9613426475,substation,0,,Umspannwerk Bayreuth Nord,E.ON Netz GmbH,
31512238,11.8736807325,49.9008181361,substation,110000,50,Immenreuth,,
106991191,11.7234023978,49.9487901638,substation,0,,,,
176504738,8.63609090576,53.0530687975,substation,0,50,Delmenhorst Mitte,,
107878276,8.71217537439,53.0295473961,substation,0,50,Stuhr,EON_Netz,
26151391,8.6352616939,53.022579466,substation,110000,50,Delmenhorst-Süd,EON_Netz,
32137605,8.56162070438,49.4546934381,substation,0,,Umspannwerk 5,MVV Energie,
163093653,8.50180857459,49.4449115329,substation,110000,,Mannheim,,Yes
89589712,10.927817226,48.2378168283,substation,110000,50,Umspannwerk Unterbergen,LEW,
89589705,10.9053121608,48.2106698796,substation,0,,,,
89589706,10.8840292587,48.1805868672,substation,0,,,etc,
97375190,10.8650984332,48.0839886504,substation,0,,,,
81043195,10.8543750129,48.058023571,substation,110000,,Umspannwerk Landsberg,Lechwerke,
142676555,10.8794183783,47.8121876997,substation,110000,50,,LEW,
134772837,10.9261260046,47.8335704823,substation,0,,,,
97471162,10.9205340941,47.875991879,substation,0,,,,
99062597,10.8704387105,48.0341342537,substation,0,,,,
134769209,10.9187220067,48.2080945135,substation,0,,Umspannwerk Prittriching,,
53375473,10.9603716186,48.3013892431,substation,110000,,Umspannwerk Kissing,Lechwerke,
104515310,10.8871548093,48.283300209,substation,0,,Umspannwerk Königsbrunn,LEW,
27040610,10.9017525985,48.3208434766,substation,0,,,,
27200252,10.6412868212,48.0274512347,substation,110000,50,Umspannstation Irsingen,,Yes
44418507,10.7331505179,48.1918415322,substation,110000,50,Umspannwerk Schwabmünchen,Lech-Elektrizitätwerke AG Augsburg,
87355423,10.8411617966,48.1847053477,substation,0,,,,
96268476,10.7155934033,48.0253386635,substation,110000,,,,
134401659,10.6994070388,48.098863529,substation,0,,Gennach,Lech-Elektrizitätswerke AG,
89072009,9.89787520685,49.8017391826,substation,15000,16.7,Unterwerk Würzburg,DB_Energie,Yes
154070452,9.58187803649,50.0522716957,substation,110000,16.7,Schaltwerk Langenprozelten,DB_Energie,
46657501,9.4049134884,49.4159122585,substation,15000,16.7,Unterwerk Adelsheim/Osterburken,DB_Energie,Yes
74038450,9.70341454053,49.9833157851,substation,15000,16.7,Unterwerk Rohrbach,DB_Energie,Yes
30060703,9.67765388239,50.0598134525,substation,15000,16.7,Unterwerk Gemünden,DB_Energie,Yes
28527401,10.4236099856,49.6467618184,substation,15000,16.7,Unterwerk Markt Bibart,DB_Energie,Yes
156480462,9.88127288613,49.8167520508,substation,0,,,,
28238219,8.93064162367,51.9419409395,substation,110000,50,Umspannwerk Vahlhausen,E.ON Westfalen Weser,
240037026,9.08856025631,51.9297695901,generator,0,,,,
288305056,8.81399422709,51.9834366629,substation,110000,50,Umspannwerk Lage,,Yes
36512141,7.87571948418,53.5560175507,substation,110000,50,Jever,EON_Netz,
36355932,7.71513788833,53.5981497448,substation,110000,50,Burhafe,EON_Netz,
89055632,11.0378069325,48.7655919526,substation,0,,Umspannwerk Rennertshofen,LEW,
88926011,10.9230879017,48.7278840797,substation,0,,,Rhein-Main-Donau AG,
50889106,11.8735809183,50.3290605775,substation,110000,50,Umspannwerk Hof West,E.ON Netz GmbH,
39167745,11.9571335532,50.3187196503,substation,110000,,Schaltwerk Hof,,
49524903,11.9401258085,50.3200202775,substation,110000,,Umspannwerk Hof-Ost,E.ON Netz GmbH,
239342509,11.9151666411,50.3443848605,substation,15000,,Umrichterwerk Hof,,Yes
141242403,11.9165535001,50.3456361831,sub_station,0,,Umspannwerk Hof-Nord,Primus Energie GmbH,
53026164,11.644429344,50.3578393815,substation,110000,50,Umspannwerk Bad Steben,,
62359148,11.6990225264,50.3248418118,substation,110000,50,Umspannwerk Naila,E.ON Netz GmbH,
155904140,11.771429841,50.2096888437,substation,110000,50,Umspannwerk Münchberg,E.ON Netz GmbH,
38115773,11.5401855611,50.1380158559,substation,0,,Umspannwerk Untersteinach,,
132966122,11.6275508831,50.1666783985,station,0,,Umspannwerk Marktleugast,,
93341407,11.8107025878,50.1837655409,substation,110000,50,Umspannwerk Mechlenreuth,TenneT TSO GmbH-E.ON Netz GmbH,Yes
104907160,6.91312758087,49.2949115014,substation,0,,UA Köllerbach,Energis,
24599434,6.87907316983,49.2490993748,plant,0,,Kraftwerk Fenne,,
90046877,12.2328465302,53.199626042,sub_station,110000,50,,E.ON edis AG,
90142945,12.1795995107,53.1341355335,substation,110000,50,,E.ON edis AG,
90142946,12.4542392749,53.1691841472,sub_station,110000,50,,E.ON edis AG,
90047814,12.4783859668,53.1764829124,sub_station,110000,50,,E.ON edis AG,
36957961,9.70623818322,52.4319689854,substation,110000,50,,EON_Netz,
39813536,6.78188353729,50.3303886607,station,0,,,,
88061760,6.65774402021,50.2154706308,station,0,,Station Gerolstein,,
88313325,6.82784493959,50.2039275115,substation,110000,50,,RWE,
88061785,6.59303837892,50.3403924919,station,0,,Station Jünkerath,,
88313321,6.91657051091,50.3723547177,sub_station,0,,,,
24271904,10.7879789386,52.5907800499,substation,110000,50,Umspannwerk Ehra,LSW LandE - Stadtwerke Wolfsburg GmbH & Co.KG,
24271896,10.7825442197,52.5001517293,substation,110000,,,,
24258096,10.7610404156,52.3677293936,substation,380000,50,Umspannwerk Hattorf,EON_Netz,
95027270,13.0049295418,53.8583725452,substation,0,50,Lindenhof,EON_edis,
33196968,12.7816574801,53.7358889045,substation,110000,50,Malchin,E.ON edis AG,
369680693,13.1433929675,53.9081470154,substation,110000,50,Siedenbrünzow,50Hertz Transmission GmbH,Yes
31024388,8.32249011694,50.4575135546,substation,0,,110/20kV UW Essershausen,E.ON Netz,
147698192,8.42562179891,50.5373084019,substation,110000,50,,,
24536211,8.48009530408,50.5909204715,substation,110000,,Umspannwerk Aßlar,E.ON Mitte AG,Yes
23883718,8.52536278943,50.319261213,substation,110000,60,Umspannwerk Westerfeld,,
24261534,8.44320548509,50.3641590428,substation,110000,50,,,
158046386,6.74151478298,51.573942461,station,0,,,,
46852069,6.81216589807,51.519620039,substation,110000,50,Station Handbach,Amprion,Yes
150277621,6.88142446412,51.5270574787,station,0,,,,
104110367,6.78781326851,51.533490957,substation,110000,50,Station Wehofen,RWE-EVO,
37554416,6.78752992544,51.505549423,substation,110000,50,Station Hamborn,Amprion,Yes
38569681,6.5671526364,51.5912334627,station,0,,Station Wallach,RWE,
24462228,6.57729059429,51.556391215,substation,110000,50,Station Ossenberg,Amprion,Yes
23380800,6.61738115555,51.4757909651,substation,110000,50,Station Utfort,Amprion,Yes
23492778,6.65301773295,51.5164792847,station,0,,,,
150283589,9.56494803399,48.5033791619,substation,0,,,,
26404600,9.70421892135,48.4649756551,substation,110000,50,EnBW Umspannwerk Laichingen,EnBW,Yes
23650729,9.87089394877,52.3692825841,substation,0,,Anderten-Misburg,Stadtwerke_Hannover_AG,
23719884,9.8908542427,52.3654828335,substation,110000,50,Umspannwerk Anderten,Stadtwerke_Hannover_AG,
23815835,9.76994685894,52.3582522639,substation,110000,,Bult,enercity Netzgesellschaft mbH,
36857397,9.86344790394,52.3769427308,substation,110000,,Umspannwerk Misburg,Stadtwerke_Hannover_AG,
34115655,11.6190867456,48.032108449,substation,110000,,Umspannwerk Potzham,,
23058322,11.6816063971,48.0503525987,substation,110000,,Umspannwerk Hohenbrunn,E.ON Netz GmbH,
171381881,11.5048034155,48.0315020163,generator,0,,Laufwasserkraftwerk Höllriegelskreuth,E.ON Wasserkraft,
26436013,10.2224770536,50.800970185,substation,0,,Bad Salzungen,Thüringer_Energienetze,
40348098,10.0718467948,50.8108777519,substation,110000,50,Martinroda,Thüringer_Energienetze,
26620593,10.3202251781,50.7583621876,substation,0,50,Breitungen,Thüringer_Energienetze,
46604720,13.5845837163,52.4438332677,substation,0,,Umspannwerk Wendenschloß,Stromnetz Berlin,
46510461,13.5210466075,52.4599347863,substation,110000,50,Umspannwerk Laufener Straße,Stromnetz Berlin,
39250468,13.586428081,52.4564602226,substation,110000,50,Umspannwerk Gelnitzstraße,Stromnetz Berlin,
24994225,9.86638953765,47.5919815857,substation,0,,Umspannwerk Lindenberg,VKW Vorarlberger Kraftwerke,
87557582,9.87275646363,47.6280515422,substation,0,,,,
97385939,9.82755537606,47.6599769356,substation,0,,,,
116021711,9.72037297445,47.5521232531,station,0,,Umspannwerk Lindau,,
89761689,9.91489617163,47.5892963987,substation,0,,Umspannwerk Weiler,VKW,
50643382,8.08162672435,52.858637492,substation,220000,50,Cloppenburg 220 kV,TenneT,
60612236,8.00849058912,52.8303282366,substation,110000,50,Cloppenburg West,EON_Netz,
108003799,8.06149919419,52.8450125731,substation,110000,50,Cloppenburg/Mitte,EON_Netz,
107890464,8.27206507399,52.7552114926,substation,110000,50,Vechta Nord,EON_Netz,
107890467,8.35591623148,52.8090707466,substation,110000,50,Visbek,EON_Netz / EWE,
107890470,8.27682745982,52.7005545083,substation,110000,50,Vechta Süd,EON_Netz,
305788492,8.15592870096,52.8097653943,substation,0,,Emstek,,
159326655,9.07622547939,49.363386981,substation,110000,50,Obrigheim,,Yes
143903369,9.0918353045,49.2946188999,substation,110000,50,Umspannwerk Hüffenhardt,,Yes
52249025,9.27218333164,53.3097745561,substation,110000,50,Zeven,EON_Netz,
112658840,9.51759296796,53.2763234181,substation,110000,50,Sittensen,,
27949412,9.19948686553,52.4681125606,substation,0,50,Rehburg,E.on Avacon,
28607657,9.02292897516,52.3662666545,substation,0,50,Bierde,Avacon AG,
36733383,9.65454560724,49.6363104084,station,0,,,,
173333015,9.48236387894,49.7803965281,substation,0,,Bestenheid,,
110660831,9.33185320179,49.7467138819,plant,0,,,,
152480573,9.50150483652,49.7500634755,substation,0,,Wartberg,,
133328022,9.7247804365,49.5579350616,station,0,,,,
32031177,9.00797643018,49.8110971057,substation,0,50,,,
173039615,9.02368244406,49.7485908851,substation,0,,,,
32865944,8.68266693234,50.4372031564,substation,0,,,,
88035681,8.80873849742,50.3555139077,sub_station,0,,,,
35834615,6.71774910291,51.5228052141,substation,110000,,Station Papierfabrik,RWE,
26623135,6.71669012436,51.5285818849,plant,0,,Kraftwerk Duisburg-Walsum,,
88973772,7.86576755388,50.4621198702,station,0,,,,
87840921,7.57388445701,50.554127403,substation,15000,16.7,,DB_Energie,Yes
87322402,7.32355856059,50.6551848371,substation,15000,16.7,Unterwerk Orscheid,DB_Energie,Yes
29374385,7.04976547,50.9036785561,substation,15000,50;16.7,Umformerwerk Köln,DB_Energie,Yes
37832751,7.20825476937,50.7896459951,substation,15000,16.7,Unterwerk Siegburg,DB_Energie,Yes
46934727,7.2431694268,50.5684638583,substation,15000,16.7,Unterwerk Remagen,DB_Energie,Yes
50898216,8.06573800301,50.4060681719,substation,110000,,Station Limburg,Amprion,Yes
88973783,7.95470126092,50.5518588976,station,0,,,,
88973779,7.73741734515,50.6315929186,sub_station,0,,,,
88774173,7.65496749001,50.6858247318,station,0,,,,
88973778,7.97732798373,50.6245220623,station,0,,,,
108003790,8.04826954117,52.6878842862,substation,110000,50,Wulfenau,EON_Netz,
108009030,8.12915658185,52.675920669,substation,110000,50,Dinklage,EON_Netz-EWE Netz,
50635590,7.94395785446,52.7325547502,substation,110000,50,Essen,EON_Netz,
69728137,11.0787025529,49.470987335,substation,110000,,Umspannwerk Horneckerweg,,
137276391,11.1028167361,49.4732001992,substation,0,,Umspannwerk Herrnhütte,N-ERGIE Netz GmbH,
47217782,11.0325828949,49.482315041,substation,110000,50,,,
28321885,11.0884901523,49.4560021999,substation,110000,50,Umspannwerk Wöhrder Tor,N-ERGIE Netz GmbH,
158253525,8.73757269512,51.7001693121,substation,110000,50,Umspannwerk Paderborn Süd,TenneT,Yes
36842925,8.74139052639,51.7001302118,plant,110000,50,Umspannwerk Paderborn Süd,Avacon,
88973789,7.76297758589,50.4705748999,substation,0,,,,
87852793,7.82020081563,50.4452485218,substation,15000,16.7,Unterwerk Montabaur,DB_Energie,Yes
88973791,7.64214573302,50.437760601,station,0,,,,
133722567,7.60743454391,50.3325814425,substation,0,,Station Horchheim,Westnetz- Süwag,
96494049,12.3652156926,48.4582597659,substation,110000,,Umspannwerk Vilsbiburg,Bayernwerk AG,
77694901,12.2208353829,48.5857329999,substation,110000,,Umspannwerk Altheim,TenneT TSO GmbH,Yes
96494052,12.6188252605,48.2604337075,substation,0,,Umspannwerk Winhöring,E.ON Netz GmbH,
279699938,12.390394926,51.3672768459,substation,110000,50,,Stadtwerke Leipzig,
27991766,12.4190539436,51.3728216132,substation,110000,50,,,
75792867,10.7284418751,50.9529575495,substation,110000,50,Gotha Gleichenstraße,Thüringer_Energienetze,
110470851,10.7333687807,50.834047524,substation,110000,50,Ohrdruf,Thüringer_Energienetze,
26620802,10.4614200987,50.7322673197,substation,0,50,Schmalkalden,Thüringer_Energienetze,
173613668,10.6142271196,50.8012692001,substation,0,50,Tambach-Dietharz,Thüringer_Energienetze,
198502159,10.7119873653,50.9289650769,substation,110000,50,Gotha,Thüringer_Energienetze,
24715748,8.51888183671,53.202635288,substation,110000,50,Umspannwerk Farge,Avacon AG,
217188726,8.58312343294,53.3228759719,substation,110000,50,Uthlede,,
114882859,8.55576840963,53.1966138798,substation,110000,,Bremen/Nord,EON_Netz,
28399135,8.58342532303,53.2305509906,substation,110000,50,Schwanewede,,
313937042,8.51681307736,53.2017635787,plant,0,,Kraftwerk Farge,,
195204677,8.35431074942,48.6959859587,station,0,,,,
195204678,8.34545731724,48.7735134798,substation,0,,,,
92070381,7.13546129244,49.8081917245,station,0,,Morbach alt,,
314369461,7.0088857113,49.7646686338,station,0,,,,
55781470,7.3072121895,49.9226927336,station,110000,50,Sohren,Westnetz,
286667796,9.91965732265,53.0082521143,substation,110000,50,Dittmern,,
116613615,8.92390217306,48.3534460037,station,0,,Umspannwerk Weilheim,,
35208446,9.05695435971,48.4356650097,substation,110000,,EnBW Umspannwerk Nehren,EnBW,
331597830,9.23464415235,48.3189315709,substation,110000,50,EnBW Umspannwerk Trochtelfingen,EnBW Regional AG,
42736239,8.87294280094,48.3100913036,substation,380000,50,EnBW Umspannwerk Engstlatt,EnBW,
87623142,8.8157861347,48.3779433324,station,0,,,,
29483505,12.43334506,50.9022638782,substation,15000,16.7,Unterwerk Gößnitz,DB_Energie,Yes
154078301,12.3699993561,50.7198380244,substation,15000,16.7,Unterwerk Reichenbach,DB_Energie,Yes
96109042,8.87705453854,49.2421687577,substation,110000,,,,
96109041,8.91686978801,49.139789881,substation,110000,,,,
96110277,9.0271746169,49.2597959753,substation,110000,,,EnBW,
175347347,11.5850899714,50.89411788,substation,110000,,,,
139270107,11.5999771792,50.886801824,substation,110000,50,Umspannwerk Jena-Göschwitz,,
51773943,8.26576811895,49.9681983653,station,20000,,Umspannwerk Hechtsheim,Kraftwerke Mainz-Wiesbaden,Yes
24686700,8.30951569944,49.9518220238,station,20000,,Umspannwerk Laubenheim,,Yes
24685992,8.38855643052,49.9823050864,substation,110000,,Umspannstation Bischofsheim,RWE- Kraftwerke Mainz-Wiesbaden,Yes
30135791,8.21999992076,49.9668247065,substation,110000,50,Umspannwerk Mainz-Bretzenheim,Kraftwerke Mainz-Wiesbaden AG,
30170958,8.20638474687,49.9884026917,station,0,,Umspannwerk Saarstraße,Kraftwerke Mainz-Wiesbaden AG,
65230697,8.23641708373,50.0283011475,station,0,,,,
91752159,11.3691936128,53.6455530189,substation,110000,50,Lankow,WEMAG,
106703932,12.0154597349,53.7719010544,substation,110000,,,access,
106703923,11.7323665941,53.7270877043,substation,110000,50,Umspannwerk Brüel,E.ON edis AG,
69917427,11.4096258695,53.6414277768,substation,110000,50,Umspannwerk Ziegelsee,,
369740790,11.3757656789,53.6035476305,substation,0,,,WEMAG,
87939872,11.4012976929,53.5750851102,substation,0,,Schweirn Süd,WEMAG,
58988687,11.4510687518,53.5922518272,substation,110000,50,Großer Dreesch,WEMAG,
29389039,11.386711999,53.5944625287,substation,15000,50;16.67,Umformwerk Schwerin,DB_Energie,Yes
149767725,10.8272621591,53.5087499001,substation,110000,50,Gallin,WEMAG,
149767729,10.7500104145,53.3830271142,substation,110000,50,Boizenburg,WEMAG,
203412031,9.63820399432,51.4249019874,substation,110000,50,,,
172997498,9.56710206575,51.32525736,substation,110000,50,Sandershausen,TenneT,Yes
157467130,7.95807309576,52.6295161659,substation,110000,50,Badbergen,RWE,
157467131,7.94519965023,52.5028641796,substation,110000,50,Alfhausen,RWE,
318426829,8.0622438191,52.4968255267,substation,110000,,,,
157584232,8.24617526763,52.5027286196,substation,110000,,,way_area,
32904794,8.40314145214,52.609644032,substation,110000,50,Station Sankt Hülfe,Amprion,Yes
157470509,8.21051214519,52.5258155292,substation,110000,50,Damme,RWE,
114319253,7.94847974095,52.3287261961,substation,110000,50,Station Halen,RWE,
157470507,7.98041228067,52.4144783204,substation,110000,50,Station Bramsche,RWE,
23150438,9.66913652708,53.4737939255,substation,110000,50,Umspannwerk Heitmannshausen,EON_Netz,
56672776,11.9936453989,51.4771358668,sub_station,110000,50,110-kV-Endmastanlage HLO-HLSP-HLD,,
64018282,11.9960402683,51.4589843541,substation,110000,,,envia,
97337276,10.4026059703,53.8116916203,substation,110000,50,Umspannwerk Bad Oldesloe,Schleswig-Holstein Netz AG,
42923115,10.2582303326,53.683738147,substation,110000,50,Umspannwerk Gewerbegebiet Ahrensburg,Schleswig-Holstein Netz AG,
89205592,10.2675475055,53.7403072749,substation,110000,50,,Schleswig-Holstein Netz AG,
146406047,9.57198323356,50.419016641,substation,15000,16.7,Unterwerk Flieden,DB_Energie,Yes
28909762,9.2886242182,50.2456503387,substation,15000,16.7,Unterwerk Wächtersbach,DB_Energie,Yes
44158873,9.09289159201,49.9857807713,substation,15000,50;16.7,Umrichterwerk Aschaffenburg,DB_Energie,Yes
146670556,9.28405213354,51.052090292,substation,15000,50;16.7,Umformerwerk Borken,DB Energie GmbH,Yes
25117377,8.59711475642,50.1416108122,substation,15000,16.7,Unterwerk Frankfurt-Rödelheim,DB Energie GmbH,Yes
104449163,8.77376404972,50.3245225951,substation,15000,16.7,Unterwerk Friedberg,DB_Energie,Yes
42669913,9.14961851503,51.4974337734,substation,15000,16.7,Unterwerk Warburg,DB_Energie,Yes
41232144,8.99279243938,51.3430094106,substation,110000,50,Umspannwerk Twistetal,Eon_Netz,Yes
33970079,8.44427163601,51.6639195438,substation,15000,16.7,Unterwerk Ehringhausen,DB_Energie,Yes
37764852,8.10495964383,52.2642614054,substation,110000,50,Station Lüstringen,Amprion,Yes
157517470,8.08159040463,52.2233353159,substation,110000,50,,,
35167444,8.12419866395,51.8253525314,substation,15000,16.7,Unterwerk Oelde,DB_Energie,Yes
42672712,8.97850530631,51.505425028,substation,110000,50,,RWE,
25993753,11.5735452374,52.1276362867,substation,110000,50,Umspannwerk Magdeburg-Diesdorf,HSN,
5404079,11.6393121226,48.1787834514,substation,110000,50,Föhring,,Yes
35395749,11.5743990094,48.1565220526,substation,110000,,Umspannwerk Arcisstraße,Stadtwerke München,
56042849,11.6024783661,48.2014343247,substation,110000,,Umspannwerk Heidemannstraße,Stadtwerke München,
30215711,11.5929439353,48.1885420779,substation,110000,50,,Stadtwerke München,
57701237,11.58951918,48.1333254179,substation,110000,,Umspannwerk Muffatwerk,Stadtwerke München,
31130143,9.65109042935,47.9806245583,station,110000,,110kV-Umspannwerk Otterswang,EnBW,
41393659,9.79535558938,47.917260414,station,110000,,110kV-Umspannwerk Haisterkirch,EnBW,
31130146,9.51218108188,48.0025898116,substation,110000,,110kV-Umspannwerk Saulgau,EnBW,
217219616,6.41363149731,50.337111916,sub_station,110000,,Kehr,,
32675761,6.53175004088,50.3900513143,substation,110000,,Station Dahlem,Amprion- Westnetz,Yes
25306752,9.42534403844,48.0644397162,substation,110000,,Umspannwerk Herbertingen,EnBW,Yes
31129218,9.50347419393,48.1589655691,substation,110000,,110kV-Umspannwerk Riedlingen,EnBW,
173853446,12.9443494876,51.1683489387,substation,110000,50,,,
173839168,13.1511527395,51.0466076174,substation,110000,50,Etzdorf,enviaM,
173846927,13.0951224395,51.1229794674,substation,110000,50,,,
173853443,12.9431032233,51.1688707584,substation,110000,50,Umspannwerk Leisnig,,
98492966,7.04940123316,49.3447110028,station,0,,,,
54359256,6.99647662278,49.3754093214,substation,110000,50,Umspannwerk Uchtelfangen,Amprion,Yes
114379527,8.37266129729,52.4744172474,substation,110000,50,,RWE,
149928647,8.57476236975,52.5537121074,substation,110000,50,,,
28696208,8.61104486212,52.3293732064,substation,110000,50,,,
129933868,6.48738847213,50.6998167448,station,0,,,,
59313069,6.46916174075,50.7620053518,station,0,,,,
88061593,6.59299876996,50.5733918599,station,0,,Station Wallenthal,RWE,
173761071,12.706496005,51.3565750965,substation,110000,50,Umspannwerk Bennewitz,,
173761081,12.6543745462,51.4634832222,substation,110000,50,Umspannwerk Eilenburg/Ost,,
173764855,12.6078730701,51.5901970152,substation,110000,50,Umspannwerk Bad Düben,,
32843531,12.5182221365,51.1570725962,substation,110000,50,Eula,50Hertz Transmission,Yes
175275042,12.7026071369,51.2406348233,substation,110000,50,,,
98446508,12.7567722204,51.381507908,substation,110000,50,Umspannwerk Wurzen,enviaM,
23161029,12.4696440481,51.3716629567,substation,110000,50,Umspannwerk Taucha,50Hertz-enviaM,Yes
89187763,9.28906344855,49.1600436453,substation,0,,Umspannwerk Weinsberg,,
89183108,9.20725613846,49.1757974665,plant,0,,Heizkraftwerk Heilbronn,ENBW,
164964701,8.46230757334,49.4573790778,station,0,,,,
152506744,8.49576578909,49.4444745133,plant,0,50;16.7,Großkraftwerk Mannheim,Grosskraftwerk Mannheim Aktiengesellschaft,
202525449,13.7930002178,52.487335913,substation,0,,,,
27748857,13.7871759695,52.4904092267,substation,0,50,Rüdersdorf,EON_edis,
199238203,8.71143950574,53.8259356935,substation,110000,50,Altenbruch,,
112950481,8.89109694723,53.7998083104,substation,110000,50,Otterndorf,EWE,
279822271,9.69562866521,52.6878377376,substation,0,,Marklendorf,,
23609918,9.98179330543,53.3903376658,substation,110000,50,Hittfeld,EON_Netz,
243147201,10.1371133876,53.3185665894,substation,0,,Pattensen,EON_Netz,
150353875,9.9727541447,53.316722725,substation,110000,50,Jesteburg,EON_Netz,
32554727,10.2228025527,53.3521731833,substation,110000,50,Winsen,,
28327356,10.3787706357,53.2197927696,substation,110000,50,Lüneburg,EON_Netz,Yes
26490286,10.0945770513,53.3952589281,substation,110000,50,Stelle,EON_Netz,
95978048,13.3954303519,48.3499836046,substation,110000,50,Umspannwerk Antiesenhofen,,
114514790,13.3310324582,48.3687976481,substation,110000,50,Umspannwerk Weidach,,
88179265,14.3164831852,53.0801918117,substation,110000,50,,,
233748792,14.3187854362,53.084937434,substation,0,,,EON_edis,
39428980,14.2708346907,53.0962865829,substation,110000,50,Vierraden,50Hertz Transmission GmbH,Yes
149673008,13.5814777452,51.6473650983,historic:substation,0,,,,
84953078,12.9733062617,51.7911524261,substation,0,,UW Jessen,enviaM,
155802949,13.2528220484,51.6991296549,substation,110000,50,,,
98784695,11.9006212511,49.8721114376,substation,110000,50,,,
222888525,11.3262197378,50.231846529,substation,110000,50,Umspannwerk Kronach,,
24757392,11.1937143679,50.1622021135,substation,110000,,Umspannwerk Redwitz,,Yes
114449625,11.3044233369,50.2095513503,substation,110000,50,Umspannwerk Neuses,,
104249284,11.3551237886,50.2671876264,substation,20000,50,Umspannwerk Friesen,,Yes
22768128,7.0304628519,50.7515753191,substation,110000,,Station Alfter,,
22767509,7.19316581458,50.7983350844,substation,110000,,Station Siegburg,RWE,Yes
22796434,7.09582677727,50.8268716857,substation,110000,,Station Stockem,Westnetz,Yes
22772508,7.03154615751,50.8205917873,station,0,,Station Ranzel,Westnetz/RWE,
31529684,7.00409655209,50.8097046223,substation,0,50,Station Urfeld,Westnetz,Yes
22772631,7.01037127403,50.8141910136,station,0,50,Station Wesseling,RWE,Yes
57786962,6.90264234731,51.0146930237,substation,110000,50,,Rheinenergie,
22690852,6.85153261718,50.9841665159,substation,110000,50,Bocklemünd,,Yes
22761692,6.93488872133,51.0335223661,substation,110000,50,UW Fühlingen,RheinEnergie,Yes
197059163,7.81036993107,47.5717815802,station,0,,,,
88901641,7.83856447599,47.5862399008,substation,0,,,,
137602559,11.5813705374,48.7648940915,substation,110000,50,Irsching,,Yes
30030574,11.4524668244,48.7385886376,substation,20000,50,Umspannwerk Kothau,E.ON Netz GmbH,Yes
30765759,11.4868396855,48.7434231957,substation,0,50,,Stadtwerke Ingolstadt,
166630186,11.798615215,48.4562630017,substation,110000,50,,,
61506802,11.5932191601,48.762113699,substation,110000,,,,
112559159,13.6329591623,48.6391193838,substation,110000,50,Umspannwerk Hauzenberg,E.ON Netz GmbH,
112559160,13.5957293249,48.7348616917,substation,110000,50,Umspannwerk Waldkirchen,E.ON Netz GmbH,
112559495,13.4988170949,48.5908197317,substation,110000,50,Umspannwerk Grubweg,Stadtwerke Passau,
39884876,13.4095507834,48.5812555458,substation,110000,,Umspannwerk Passau,E.ON Netz GmbH,
175112801,7.04723402551,50.9043741466,substation,110000,50,Station Gremberghoven,RWE,
29374542,7.04738454562,50.9055286431,substation,110000,50,Station Gremberghoven,RWE,Yes
32705123,7.1300423781,50.9795084547,substation,110000,,Station Gronauerwald,,
32743607,7.18120956316,50.9656480722,substation,110000,,Umspannanlage Moitzfeld,,
43401826,11.4399807025,47.8993768172,substation,110000,50,Umspannwerk Föhrenwald,,
92761410,11.5056749994,47.8570715904,substation,110000,50,Umspannwerk Geretsried,E.ON Netz GmbH,
126121177,11.4078681093,47.7435665316,substation,110000,50,Umspannwerk Schönmühl,E.ON Netz GmbH,
191553069,9.43476919106,49.7907912696,substation,0,,,,
105802359,9.23209316052,49.7150859909,station,0,,Umspannwerk Großheubach,E.ON Netz GmbH,
110077372,8.65135624484,54.305463843,substation,110000,50,St. Peter,EON_Netz,
87965406,9.09626214981,54.4727075642,substation,110000,50,Rosendahl,EON_Netz,
88860386,8.74876091629,54.3279496545,substation,110000,50,Sandwehle,EON_Netz,
240191029,8.06319444876,48.3398820945,station,110000,,Umspannwerk,EW Mittelbaden,
127564671,8.07618583394,48.2883319374,substation,0,,,,
30065262,11.5676671748,49.9142651515,substation,110000,50,Umspannwerk Bayreuth Süd,,
29181173,11.5450188945,49.7673753012,substation,110000,50,Umspannwerk Pegnitz,E.ON Netz GmbH,
60356210,11.7822785467,49.860564743,substation,110000,50,Umspannwerk Speichersdorf,Bayernwerk AG,
109252681,11.6397952794,50.0483219038,substation,110000,50,Umspannwerk Bad Berneck,,
93278998,11.7463715785,50.1035496625,substation,110000,50,Umspannwerk Gefrees,E.ON Netz GmbH,
27135165,11.5660958194,49.9498617284,substation,110000,50,Umspannwerk Bayreuth Mitte,,
31662013,11.4253007782,50.0958048773,substation,110000,,Umspannwerk Kulmbach,,
128565871,13.4848608178,52.4379277436,substation,0,,Umspannwerk Rudow,Stromnetz Berlin,
22973052,13.5061280249,52.4738227039,substation,110000,50,Umspannwerk Wuhlheide,50Hertz-Vattenfall Europe AG,Yes
47014670,13.5463595302,52.4353486705,substation,110000,50,Umspannwerk Moissistraße,,
48860107,13.4439065198,52.4672646174,substation,110000,50,Umspannwerk Neukölln,Vattenfall Europe AG,
46606305,13.4485715822,52.4250130397,substation,110000,50,Umspannwerk Wildmeister,Stromnetz Berlin,
