n_id,longitude,latitude,type,voltage,frequency,name,operator,not_accurate
170535937,-81.0259735969,29.2124240815,substation,115000;13800,60,Daytona Beach Substation,FPL,
170535939,-81.0302425641,29.1887231037,substation,115000,60,,FPL,
145185520,-81.0868583441,29.2095527433,substation,230000;115000,60,Volusia Substation,FPL,
379429523,-81.0453621438,29.2155028393,substation,115000,60,Madison Substation,,
380933634,-80.9049928007,28.9732731845,substation,115000;14000,60,Edgewater Substation,FPL,
380933635,-80.9981975477,29.0187427855,substation,115000,60,Smyrna Substation,City of New Smyrna Beach,
380933609,-81.0291788592,29.1030982297,substation,115000,60,,FPL,
361086612,-85.6759988077,30.2445855936,substation,115000;12000,60,North Bay Substation,Gulf Power,
361097163,-85.667368419,30.212844055,substation,115000,60,Northside Substation,Gulf Power,
70086159,-81.3192075171,28.5164636325,sub_station,0,,Grant Substation,Orlando Utilities Commission,
70085840,-81.351150287,28.5125747141,sub_station,0,,Michigan Substation,Orlando Utilities Commission,
253670928,-81.2308944152,29.6007227304,substation,115000,60,,FPL,
252573947,-81.2912262277,29.7574137246,substation,115000,60,,FPL,
136608051,-81.2230082285,29.5621172604,substation,115000,60,,FPL,
217365763,-80.7670571511,28.4682168175,substation,230000;115000,60,Cape Canaveral Substation,FPL,
419594707,-80.764120051,28.4692582678,plant,0,,Cape Canaveral Power Plant,Flordia Power and Light,
205411207,-80.8449302171,28.5588248123,substation,230000;115000;14000,60,Barna Substation,FPL,
180993641,-80.8142314629,28.6105060847,substation,115000,60,Titusville Substation,FPL,
206187550,-86.616960371,30.4386121372,substation,115000;12000,60,Ocean City Substation,Gulf Power,
206187551,-86.6258568421,30.4630769978,substation,115000;12000,60,Turner Substation,Gulf Power,
206063355,-86.509883185,30.515127798,substation,115000;12000,60,Valparaiso Substation,Gulf Power,
378982444,-85.7575297189,30.1604709833,substation,115000;12000,60,Hathaway Substation,Gulf Power,
189475251,-85.6829586216,30.1846546288,substation,115000;12000,60,Greenwood Substation,Gulf Power,
224445360,-85.7000584608,30.2698826636,substation,230000;115000;12000,60,Smith Substation,Gulf Power,
361097175,-85.6318884769,30.1938637494,substation,230000;115000;12000,60,Highland City Substation,Gulf Power,
138335267,-87.3098360426,30.3844298992,substation,115000;12000,60,Beach Haven Substation,Gulf Power,
133234577,-87.289622955,30.4678694522,substation,230000;115000;12000,60,Bellview Substation,Gulf Power,
133235170,-87.2581249067,30.4407836389,substation,115000,60,,Gulf Power,
138335270,-87.4148496352,30.3241089113,substation,115000;12000,60,Innerarity Substation,Gulf Power,
279152564,-87.272433237,30.35763876,substation,115000,60,,Gulf Power,
138335268,-87.109463863,30.3830669549,substation,115000,60,,Gulf Power,
138335271,-86.9905777364,30.4017806502,substation,115000,60,,Gulf Power,
190682699,-87.1556867476,30.3607378837,substation,115000;12000,60,Gulf Breeze Substation,Gulf Power,
138335269,-86.8847982336,30.4024482662,substation,115000,60,Navarre Substation,Gulf Power,
187567464,-86.9146651023,30.4722484239,substation,230000;115000,60,,Gulf Power,
160874028,-82.654487939,27.7726580923,substation,115000,,,,
161467804,-82.6376777918,27.7581910853,substation,115000,60,Bayboro Substation,Progress Energy,
160665503,-82.6886436576,27.785532932,substation,115000,60,40th Street Substation,Progress Energy,
354184124,-87.3490194187,30.7181841968,substation,115000;12000,60,Molino Substation,Gulf Power,
202227647,-87.3312900327,30.7948283627,sub_station,0,,,,
371840566,-82.0386149804,29.7086888293,substation,115000,60,Melrose Electric Substation,,
382091526,-82.0280204804,29.60811855,substation,115000,60,Hawthorne OCB Electric Substation,Clay Electric Cooperative,
103079228,-82.0841826897,29.924935736,substation,230000;138000;115000;14000,60,Bradford Substation,FPL,
349375040,-86.4649153557,30.513070241,substation,115000;12000,60,Niceville Substation,Gulf Power,
206063372,-86.4116382073,30.4738907928,sub_station,0,,,,
180075585,-82.63447995,27.7768159055,substation,115000,60,Vinoy Substation,Progress Energy,
44612973,-82.633354106,27.8204456651,substation,115000,60,Pillsbury Substation,Progress Energy,
139323970,-82.7396995548,28.1490217909,substation,115000;69000,60,Tarpon Springs Substation,Progress Energy,
166717154,-82.6948466498,28.1438442816,substation,115000,,,,
165844041,-84.861266033,30.7091576113,sub_station,0,,,,
165844045,-84.8864406367,30.6695712867,substation,115000,60,,Gulf Power,
165844042,-84.9008003239,30.6638577306,substation,230000;115000;12000,60,Sinai Substation,Gulf Power,
379708813,-85.1222515033,30.5150066479,substation,115000,60,Chipola Substation,Gulf Power,
378895133,-85.2727836207,30.7833117967,substation,115000;12000,60,Marianna Substation,Gulf Power,
379183182,-82.560595584,28.3699796397,substation,115000,60,,,
149838938,-82.5679972341,28.3656302661,substation,230000;115000,60,Hudson Substation,Progress Energy,
382022737,-81.5150099855,29.3821023961,substation,115000,60,Hammond Substation,Clay Electric Cooperative,
314150839,-81.5977592088,29.4914003708,substation,115000,60,Pomona Park Substation,,
166899404,-81.5893532881,29.6298260703,substation,115000,60,115kV Substation,FPL,
382022740,-81.653582394,29.5472602113,substation,115000,60,Satsuma Substation,Clay Electric Cooperative,
382022738,-81.5136135354,29.7146578923,substation,115000;14000,60,Hastings Substation,FPL,
252573942,-81.3496104666,29.8576781712,substation,0,,,,
145184014,-81.1695529403,29.4063983388,substation,230000;115000,60,Korona Substation,FPL,
132641745,-81.1993167449,29.4958297645,substation,230000;115000,60,Bunnell Substation,FPL,
315041487,-81.119412046,29.4114882298,substation,115000;13800,60,Bulow Substation,FPL,
361097174,-85.631281129,30.1949640096,substation,115000;12000,60,Highland City Substation,Gulf Power,
380119213,-82.5544934181,28.4923541306,substation,115000,60,,Progress Energy,
166717144,-82.5006107817,28.5278531199,substation,230000,60,Brooksville West Substation,,
378632644,-81.0721749942,29.2839849074,substation,115000;13800,60,Ormond Substation,FPL,
279396389,-82.6831181914,28.2033588747,substation,230000;115000,60,Seven Springs Substation,Progress Energy,
279260591,-82.7229005449,28.2065377043,substation,115000,60,Elfers Substation,Progress Energy,
109826655,-82.6510412996,28.0595255593,substation,230000,60,,,
109826656,-82.7242074784,28.0540736477,substation,230000;115000,60,,,
62293928,-82.6624080778,28.0037956946,substation,115000,60,,,
377942637,-82.6799660849,28.0456933519,substation,0,,,,
382412281,-81.2201541022,28.956803329,substation,115000,60,,,
382412269,-81.2566356354,28.9443537271,substation,115000,60,,,
166721868,-81.2908133454,28.9117847357,substation,230000;115000,60,Orange City Substation,Progress Energy,
231615079,-87.1746935521,30.478107687,substation,115000,60,Eastgate Substation,Gulf Power,
133235653,-87.2055623673,30.4979039945,substation,115000,60,Cordova Substation,Gulf Power,
379429524,-80.9972166808,29.1396720191,substation,115000,60,Port Orange Substation,FPL,
379429518,-81.0010762945,29.1622111084,substation,115000,60,,FPL,
192390482,-81.0359913125,29.1290704266,substation,115000;13000,60,Willow Substation,FPL,
224565875,-81.1592299643,28.4949810823,sub_station,0,,,,
47431902,-81.1600691782,28.4930921454,sub_station,0,,Stanton Substation,Orlando Utilities Commission,
70080732,-80.7806775859,28.4920178542,substation,0,60,,FPL,
47468302,-81.3011411195,28.5015229415,sub_station,0,,Pershing Substation,Orlando Utilities Commission,
377180606,-82.7035391874,27.8293970388,substation,115000,60,115kV Substation,Progress Energy,
243821989,-82.6771186787,27.8330288809,substation,115000,60,32nd Street Substation,Progress Energy,
150436992,-82.2935040951,28.2584729033,substation,115000,60,,,
166672301,-82.1811194453,28.2586716705,substation,230000;69000,60,North Zephyhills Substation,,
363655569,-87.226835858,30.5641454826,substation,230000,60,Crist Substation,Gulf Power,
92357950,-87.2256672416,30.5649955228,plant,0,,James F. Crist Generating Plant,,
186562903,-87.2008292493,30.6141974815,substation,115000,,,,
379429522,-81.0762406537,29.1937223459,substation,115000;13800,60,General Electric Substation,FPL,
188823951,-82.7067052504,27.8928514484,substation,115000,60,Ulmerton Transfer Center,Progress Energy,
188823953,-82.7067945143,27.8913469186,substation,230000,60,,,
216289648,-80.8900084185,28.6672933357,substation,230000;115000;14000,60,Norris Substation,FPL,
380291615,-81.218949769,28.785411448,substation,115000;24000,60,Celery Substation,FPL,
380933629,-81.2716205551,28.8074345598,substation,115000,60,,FPL,
301960703,-81.1643583791,28.8536456195,substation,230000;115000;24000,60,Osteen Substation,FPL,
138320546,-87.2282771939,30.4667241747,substation,115000,60,,Gulf Power,
133234575,-87.2578983325,30.4658126376,substation,230000;115000;12000,60,Brentwood Substation,Gulf Power,
138320548,-87.2208372815,30.4400539931,substation,115000;12000,60,Goulding Substation,Gulf Power,
199760338,-87.2231758336,30.4188580561,substation,115000,60,Devilliers Substation,Gulf Power,
138320551,-87.2453549548,30.497800147,substation,115000,60,,Gulf Power,
166899380,-81.5858844517,29.6299794674,substation,230000,60,Putnam Substation,FPL,
380985886,-80.5945487719,28.4484285096,substation,115000,60,,NASA,
62234481,-80.6010749523,28.420606461,substation,138000;115000;14000;13200,60,South Cape Substation,FPL-NASA,
206053562,-86.6544672946,30.4434893105,substation,230000;115000;12000,60,Wright Substation,Gulf Power,
35387127,-86.6177139474,30.4130691461,substation,115000;12000,60,Fort Walton Substation,Gulf Power,
186574016,-87.2388349139,30.526540086,substation,115000;12000,60,Scenic Hills Substation,Gulf Power,
111291073,-82.6973882191,28.000590879,substation,115000,60,Safety Harbor Substation,Progress Energy,
111291077,-82.731911134,28.0005301507,substation,230000;115000;69000,60,East Clearwater Subdivision,Progress Energy,
166899395,-81.5866991874,29.6319061401,substation,115000;13000,60,,FPL,
111291076,-82.6617101801,28.0046394428,substation,0,,,,
89816363,-82.7341988227,27.9554224352,substation,115000,60,,Progress Energy,
166899401,-81.7450121001,29.9727679241,substation,230000,60,Springbank Substation,,
134811101,-81.8256892391,30.0322121908,substation,115000,60,Lake Asbury Substation,Clay Electric Cooperative,
381941571,-81.8324682193,30.1038023329,substation,115000,60,Middleburg Substation,Clay Electric Cooperative,
102952837,-81.8393404658,30.1044803139,substation,230000;138000;115000,60,Black Creek Substation,Clay Electric Cooperative,
453871516,-81.585361788,29.6281229663,plant,0,,Putnam Power Plant,,
37394125,-82.6043238388,27.8621123697,substation,0,,,,
107867410,-82.6598019,27.8580906939,substation,230000,60,230kV Substation,Progress Energy,
70085335,-81.3777066307,28.5197591171,substation,0,,Kaley Substation,Orlando Utilities Commission,
70085336,-81.3822957828,28.5346524095,substation,0,,America Substation,Orlando Utilities Commission,
149817252,-82.498371727,28.5751252699,substation,500000;230000,,Brookridge Substation,Florida Power Corporation,
358217437,-87.271713811,30.3685914933,substation,115000,60,,Gulf Power,
358903148,-87.2758170518,30.3741884106,substation,0,,,,
189478444,-85.6072917654,30.1545781954,substation,115000;46000,60,Wewa Road Substation,Gulf Power,
361097186,-85.5631361597,30.1945339155,substation,230000;115000;12000,60,Callaway Substation,Gulf Power,
237754820,-85.637074026,30.159017627,substation,115000;12000,60,Redwood Substation,Gulf Power,
138357991,-85.8153956357,30.1869595264,substation,115000;12000,60,Long Beach Substation,Gulf Power,
160206601,-85.8939383723,30.2490482984,substation,230000;115000;12000,60,Laguna Beach Substation,Gulf Power,
361319226,-85.787740806,30.1880176605,substation,115000;12000,60,Holiday Substation,Gulf Power,
382022735,-81.6434921705,29.4316581435,substation,115000,60,Fruitland Substation,Clay Electric Cooperative,
382022739,-81.7418250395,29.3699278863,substation,0,,Salt Springs Substation,Clay Electric Cooperative,
187598061,-86.3591971694,30.3789466565,substation,115000,60,Miramar Substation,Gulf Power,
189471019,-86.4136557673,30.38564742,substation,115000,60,Henderson Park Substation,Gulf Power,
380094197,-81.362881787,29.9815321547,substation,115000,60,,FPL,
360772823,-81.3296588107,29.914905029,substation,0,,,,
352857534,-81.3200988542,29.8890811447,substation,115000,60,,FPL,
160199528,-86.5589775826,30.7143252487,substation,230000;115000;12000,60,Shoal River Substation,Gulf Power,
89915197,-86.4826608594,30.3936526463,substation,115000;12000,60,Destin Substation,Gulf Power,
361332600,-86.4060512356,30.3994028617,substation,0,,,,
349377494,-86.4149969084,30.4563261821,substation,0,,,,
382091534,-82.0827977193,29.5729380928,substation,0,60,Hawthorne Substation,Clay Electric Cooperative,
187354381,-87.3266608178,30.6009425183,substation,115000;12000,60,Cantonment Substation,Gulf Power,
187354039,-87.3126374992,30.5325325652,substation,115000;12000,60,Pine Forest Substation,Gulf Power,
380933619,-80.9323456818,29.0159471783,substation,115000,60,,City of New Smyrna Beach,
380933625,-80.9558191093,29.0505677336,substation,115000,60,,City of New Smyrna Beach,
191145747,-82.7340823502,27.7714412462,substation,230000;115000,60,,Progress Energy,
192528747,-82.7019441126,27.7704625737,substation,230000;115000,60,51st Street Substation,Progress Energy,
107867418,-82.6591767283,27.8564497525,substation,230000;115000,60,Northeast Substation,Progress Energy,
378895132,-85.5367441438,30.9700148353,substation,115000;12000,60,Graceville Substation,Gulf Power,
381791818,-81.2727505323,28.8699776502,substation,115000,60,,,
380933626,-81.3255743424,28.8472494181,substation,115000,60,,FPL,
206054851,-82.7235432645,27.9219396276,substation,115000,60,,Progress Energy,
352872766,-87.2053140053,30.5294284563,substation,115000,60,,Gulf Power,
253414217,-81.748022056,30.0547245434,substation,115000,60,Russell Substation,Clay Electric Cooperative,
253414218,-81.7247688833,30.0883598416,substation,115000,60,Fleming Island Substation,Clay Electric Cooperative,
206038858,-87.2225871409,30.4104683525,substation,115000;12000,60,Romana Substation,Gulf Power,
133235168,-87.2467600738,30.4139049331,substation,115000;12000,60,Bayou Chico Substation,Gulf Power,
354211313,-87.1321437111,30.5894309065,substation,115000,60,Air Products Substation,Gulf Power,
382908218,-82.9185057097,30.6995959821,substation,115000,60,,,
132895707,-82.9423081526,30.5167410559,substation,115000,60,Jasper Substation,Progress Energy,
160199553,-86.5625371607,30.7422101577,substation,115000;12000,60,South Crestview Substation,Gulf Power,
186533753,-87.1187129326,30.5729041062,substation,115000,60,,Gulf Power,
190135236,-86.5336167192,30.7952518022,substation,115000,60,Airport Substation,Gulf Power,
453631881,-81.6678385773,29.6420386846,substation,0,60,,,
161467805,-82.6357126631,27.7581500866,substation,115000,60,,Progress Energy,
160665510,-82.6887529002,27.7869109754,substation,230000;115000,60,40th Street Substation,Progress Energy,
382412257,-81.3242562629,28.9772569411,substation,230000,60,,,
382412285,-81.3721655681,29.0149002359,substation,230000;115000;69000,60,DeLand West Substation,Progress Energy,
354211315,-87.1159978296,30.5665736262,substation,115000,60,,Gulf Power,
299714066,-81.3252307986,28.8422370207,plant,0,,FPL Sanford Power Plant,,
25899010,-82.4087836791,27.9083767858,substation,230000;138000,60,,Tampa Electric,
223981335,-82.4810153311,28.0228427861,substation,0,60,Juneau Substation,Tampa Electric,
29352857,-82.4402053324,27.9380394634,substation,138000;69000;13000,60,Gannon Substation,Tampa Electric,
84953771,-81.4035556851,30.1947404068,substation,138000,60,,Beaches Energy,
83304361,-81.3948410095,30.2536307067,substation,138000,60,Butler Substation,Beaches Energy,
378165267,-80.1503589659,25.9978173173,substation,230000,60,Moffett Substation,FPL,
376795358,-80.1485195154,26.0173826018,substation,138000,60,Hollywood Substation,FPL,
204764768,-80.1422141866,25.9463439019,substation,138000;14000,60,Ojus Substation,FPL,
380192790,-80.1705608299,25.8793335111,substation,138000;14000,60,Boulevard Substation,FPL,
204883844,-80.1701067998,25.8927855177,substation,138000;14000,60,Arch Creek Substation,FPL,
375087143,-80.349451105,25.7539514379,substation,138000;13800,60,Tropical Substation,FPL,
48799790,-80.3432589842,25.7683080344,substation,230000;138000,60,Flagami Substation,FPL,
377595844,-80.3815580087,25.6931494388,substation,138000,60,Marion Substation,FPL,
139419690,-80.264736771,25.9592159661,substation,138000,60,,FPL,
376954209,-80.2636888772,25.9369385747,substation,138000;13800,60,Garden Substation,FPL,
170092180,-80.2669593508,25.9909130502,substation,138000;13800,60,Perry Substation,FPL,
375087147,-80.2034261572,25.7846307184,substation,138000,60,,FPL,
167158258,-80.2271616979,25.7838664535,substation,138000,60,Lawrence Substation,FPL,
377964588,-82.5129829321,27.3152059666,substation,138000;14000,60,Hyde Park Substation,FPL,
35450591,-82.4835667653,27.357626374,substation,230000;138000,60,Ringling Substation,FPL,
377964589,-82.5480740566,27.3479791081,substation,138000;14000,60,Payne Substation,FPL,
165674350,-82.532996261,27.3499482919,substation,138000;14000,60,Lime Substation,FPL,
48800148,-80.3528855144,25.7357954681,substation,230000;14000,60,Olympia Heights Substation,FPL,
167158259,-80.2713874031,25.7758405187,substation,138000;13800,60,Riverside Substation,FPL,
377595846,-80.2959338711,25.7548868441,substation,138000;14000,60,62nd Avenue Substation,FPL,
377608111,-80.312347436,25.7840507335,substation,138000,60,,FPL,
308847275,-80.3268462616,25.7752197724,substation,138000;14000,60,Bell Substation,FPL,
375087152,-80.1937342973,25.7967487958,substation,230000;138000;69000;14000;7000,60,Miami Substation,FPL,
378095147,-80.2033167408,25.7840493861,substation,138000;13800,60,Railway Substation,FPL,
378123852,-80.1422370101,25.7949162907,substation,138000,60,Venetian Substation,FPL,
378095138,-80.2186982705,25.7964696774,substation,138000,60,Market Substation,FPL,
77914164,-80.701114881,28.230114791,substation,138000;24000,60,Suntree Substation,FPL,
105168273,-80.6703837393,28.1845652494,substation,138000;24000,60,Windover Substation,FPL,
379074104,-80.6325087535,28.1375467734,substation,138000;14000,60,Eau Gallie Substation,FPL,
420427830,-80.9424794811,26.740689422,substation,138000;13000,60,City of Clewiston Substation,City of Clewiston,
384908581,-80.9433957054,26.6900859878,substation,138000;138000;69000,60,McCarthy Substation,City of Clewiston,
230526303,-81.753122179,26.1757505723,substation,230000;138000;14000,50,Collier Substation,FPL,
383227317,-81.7927303665,26.1980485959,substation,138000;14000,60,Solana Substation,Florida Power & Light,
230526309,-81.7038626403,26.0359761085,substation,0,,Belle Meade Substation,LCEC,
230526308,-81.7430166626,26.1404631954,substation,138000;13000,60,Alligator Substation,Florida Power & Light,
230526307,-81.6822012778,26.1130588787,substation,138000;24000,60,Rattlesnake Substation,Florida Power & Light,
383229027,-81.7557876584,26.3558834287,substation,230000;138000;13000,60,Terry Substation,Florida Power & Light,
160690958,-81.7956462641,26.3304200231,substation,138000;24000,60,Bonita Springs Substation,Flordia Power and Light,
383227316,-81.7869949968,26.243781424,substation,138000;13000,60,Pine Ridge Substation,Florida Power & Light,
375098720,-80.2063985505,25.8909384357,substation,138000;13800,60,Biscayne Substation,FPL,
289964911,-80.2123294987,25.9135240262,substation,138000;13800,60,Brandon Substation,FPL,
376795355,-80.2138169541,25.9722055404,substation,138000,60,County Line Substation,FPL,
146841676,-80.2065753617,25.8596314932,substation,230000;138000,60,Miami Shores Substation,FPL,
379971650,-81.7525332108,30.3074103989,substation,138000,60,Lane Substation,JEA,
166776124,-81.8197720526,30.3066733684,substation,230000;138000;26400,60,Normandy Substation,JEA,
377751622,-80.0778123501,26.5062723371,substation,138000,60,Golf Substation,FPL,
48445955,-80.1257639938,26.5379016142,substation,230000;138000,60,Cedar Substation,FEC,
162935508,-80.0796232533,26.5305448413,substation,0,,,,
160439502,-80.0908867572,26.4697931618,substation,138000;14000,50,Lake Ida Substation,FPL,
377751623,-80.0755024104,26.5401473046,substation,138000;14000,60,Quantum Substation,FPL,
172594016,-80.0659550576,26.5729227634,substation,138000,60,Hypoluxo Substation,LWU,
146841678,-80.2047662814,25.8408429134,substation,138000,60,Little River Substation,FPL,
146841677,-80.1891379226,25.8458909247,substation,138000;13800,60,Lemon City Substation,FPL,
368546024,-80.2586266247,25.8777399519,substation,138000,60,,FPL,
378222679,-80.0704342133,26.464546817,substation,138000,60,,FPL,
49615856,-80.0886693633,26.4462887727,substation,138000,60,Germantown Substation,FPL,
378001497,-80.5069299096,27.8808247156,substation,138000;14000,60,Micco Substation,FPL,
139636929,-80.4776772123,27.8119213842,substation,138000,60,Sebastian Substation,FPL,
379082630,-80.5274496389,27.9247442056,substation,138000,60,,FPL,
166791261,-81.7654091276,30.2232860329,substation,230000;138000;69000,60,Firestone Substation,JEA,
380061469,-81.8342547289,30.2502386009,substation,138000,60,Cecil Field Substation,JEA,
217821278,-80.7568867947,28.4024782875,substation,138000,60,City Point Substation,FPL,
134698352,-80.7274019607,28.3528464029,substation,138000;14000,60,Cocoa Substation,FPL,
380202960,-80.7355219958,28.3210512186,substation,138000;14000,60,Rockledge Substation,FPL,
166791264,-81.6586037087,30.4948177954,substation,138000,60,,JEA,
379890629,-81.5845910377,30.5898351804,substation,138000,60,Nassau Substation,JEA,
380371047,-82.5280708215,27.3785143383,substation,138000,60,,FPL,
380371048,-82.5408544916,27.4186198792,substation,138000;14000,60,Whitfield Substation,FPL,
83628136,-81.348930413,24.6748669008,substation,138000,60,,KEYS,
88621269,-81.6533961474,24.5981407942,substation,138000,60,,City of Key West,
378038647,-81.4762156734,24.6626289111,substation,138000,60,,KEYS,
377505585,-80.648194364,24.905645196,substation,138000,60,Islamorada Substation,FKEC,
233822581,-80.5209097467,25.0064857418,substation,138000,60,Tavernier Substation,FKEC,
377468599,-80.3784991298,25.1650626225,substation,138000;69000,60,Jewfish Creek Substation,FKEC,
169283220,-80.4518327359,25.4470947487,substation,138000;14000,60,Florida City Substation,,
380371049,-82.1760397354,27.0166083001,substation,138000,60,,FPL,
164663289,-82.1381073364,27.0167588842,substation,230000;138000;13000,60,Coast Substation,Florida Power & Light,
380371074,-82.33615967,26.9628067115,substation,138000;24000,60,Englewood Substation,FPL,
380371079,-82.309210107,26.9773469975,substation,230000;138000,60,Myakka Substation,FPL,
166791286,-81.7513679187,30.3804030541,substation,138000,60,,JEA,
166791289,-81.6983290006,30.4544026076,substation,138000,60,Garden City Substation,JEA,
379893182,-81.7145438882,30.404666628,substation,138000,60,,JEA,
166791294,-81.6342150213,30.454800081,substation,138000,60,Ritter Park Substation,JEA,
380061465,-81.6444388572,30.4343739219,substation,138000,60,Anheuser-Busch Substation,JEA,
380371075,-82.0740480763,26.9673187828,substation,138000;24000,60,Harbor Substation,FPL,
380398878,-82.0469047236,26.9343779048,substation,138000;14000,60,Punta Gorda Substation,FPL,
171849863,-80.2545528575,25.735560902,substation,138000;14000,60,Coconut Grove Substation,FPL,
310516673,-80.2537553628,25.7475585084,substation,138000;13800,60,Douglas Substation,FPL,
377595842,-80.275653919,25.7167207502,substation,138000;13800,60,University Substation,FPL,
378875451,-80.1966844508,25.7608049784,substation,138000;14000,60,Simpson Substation,FPL,
380371080,-82.5224848105,27.4283034539,substation,138000;24000,60,Woods Substation,FPL,
376813715,-80.2048743722,25.9465607095,substation,138000;13800,60,Weston Village Substation,FPL,
376813721,-80.2039679782,25.9282433681,substation,138000,60,Fulford Substation,FPL,
376813720,-80.1715914135,25.9243274829,substation,138000;14000,60,Uleta Substation,FPL,
193968283,-81.8483940231,26.6221829121,substation,138000;14000,60,Hanson Substation,Florida Power & Light,
194907813,-81.7823039146,26.6966769243,plant,0,60,Fort Myers Plant,Florida Power & Light,
374994649,-81.865438773,26.6420046746,substation,0,60,Fort Myers Substation,Florida Power & Light,
255213728,-80.1242869753,25.9009298967,substation,138000,60,Haulover Substation,FPL,
378875450,-80.1224970109,25.8724474645,substation,138000,60,Normandy Beach Substation,FPL,
330299562,-80.2172855365,26.2592426826,substation,138000;13800,60,Margate Substation,FPL,
48798346,-80.2225877093,26.1787199271,substation,230000;14000,60,Woodlands Substation,FPL,
48445615,-80.1463216153,26.6758439894,substation,0,60,Jog Substation,FPL,
379347418,-80.1477060876,26.6152027909,substation,138000;13800,60,Fountain Substation,FPL,
48438733,-80.2194729986,26.6749647886,substation,230000;138000;13800,60,Ranch Substation,FPL,
34902204,-82.4684036423,27.4607096078,substation,230000;138000,60,Johnson Substation,FPL,
376795338,-80.1511838861,25.9272875421,substation,230000;138000;14000,60,Greynolds Substation,FPL,
376795346,-80.1837933993,25.9934129907,substation,138000,60,,FPL,
144502179,-80.1830313266,25.9674788026,substation,138000;13800,60,Ives Substation,FPL,
378875454,-80.1320751107,25.9304019442,substation,138000,60,Sunny Isles Substation,FPL,
376795340,-80.2117628556,26.0029918947,substation,138000,60,Beverly Substation,FPL,
292962173,-80.1976929453,26.07007489,plant,0,,Lauderdale Power Plant,Flordia Power and Light,
97659513,-80.171712778,26.048412006,substation,138000;13800,60,Ravenswood Substation,FPL,
48829318,-80.2015435526,26.0637215566,substation,138000;13800,60,Playland Substation,FPL,
376795363,-80.1836972344,26.0312078052,substation,138000;13800,60,Stirling Substation,FPL,
116823344,-81.7341885766,24.5756709597,substation,138000,60,Key West Substation,KEYS,
419594710,-80.1256801277,26.0848542444,plant,0,,Port Everglades Power Plant,Flordia Power and Light,
135952611,-80.1634439533,27.0419197155,substation,138000,60,Hobe Substation,FPL,
166553974,-80.1183649103,26.9336941989,substation,138000,60,Jupiter Substation,Florida Power and Light,
170092176,-80.2883871422,25.8832520906,substation,138000,60,,FPL,
383614333,-82.0230830448,26.6391379654,substation,230000;138000;24000,60,Cape North Substation,LCEC,
375938029,-82.0143719948,26.5913185571,substation,138000;13000,60,West Cape Substation,LCEC,
383614334,-81.9243183293,26.6974132479,substation,138000;24000,60,Corbett Substation,LCEC,
303082265,-81.916931836,26.6983809864,substation,230000;138000,60,Lee Substation,LCEC,
377964586,-82.4972575749,27.2688748366,substation,138000;14000,60,Beneva Substation,FPL,
377964587,-82.4475332403,27.2848666481,substation,230000;138000,60,Howard Substation,FPL,
377712012,-82.4339545501,27.104947417,substation,138000,60,Venice Substation,FPL,
377712011,-82.3733880549,27.1356344334,substation,230000;138000;13000,60,Laurelwood Substation,FPL,
381298454,-82.4500307869,27.136801991,substation,138000,60,,FPL,
375769361,-80.2936236195,25.8402685868,substation,138000;14000,60,Seminola Substation,FPL,
171270608,-80.2582643931,25.8101662545,substation,138000;14000,60,Fronton Substation,FPL,
140224288,-80.3127921326,25.8310011259,substation,138000;14000,60,,FPL,
48830739,-80.3144053776,25.88487361,substation,230000;138000,60,Gratigny Substation,FPL,
170092190,-80.3196040047,25.9420654513,substation,138000;14000,60,Country Club Substation,FPL,
169460011,-80.365843118,25.6283748857,substation,138000;13800,60,Coral Reef Substation,FPL,
377613209,-80.3730513184,25.569433564,substation,138000,60,Goulds Substation,FPL,
201365970,-80.3303700498,25.5841909965,substation,138000;13800,60,Whispering Pines Substation,FPL,
394152291,-81.1123973718,26.6954648769,substation,138000;138000,60,,Glades Electric Co-Op,
161933668,-80.1139698798,26.6168900607,substation,138000;13800,60,Greenacres Substation,FPL,
378426176,-80.1121199542,26.6447407919,substation,138000,60,,FPL,
136940873,-80.1096175738,26.9135440402,substation,230000;138000,60,Plumosus Substation,FPL,
340072827,-80.0881189648,26.3707770816,substation,138000;14000,60,Caldwell Substation,Florida Power & Light,
378632636,-80.1033026864,26.3307944055,substation,138000;14000,60,Hillsboro Substation,FPL,
140124149,-80.3965819705,25.6401387677,substation,230000;138000,60,Davis Substation,FPL,
381061984,-80.6087151915,28.2594001339,substation,138000,60,,FPL,
379074122,-80.6072684393,28.2132005437,substation,138000;13800,60,Patrick Substation,FPL,
380202948,-80.6090562901,28.3589995889,substation,138000;14000,60,Cocoa Beach Substation,FPL,
380202958,-80.7015900304,28.3544220977,substation,138000;14000,60,Merritt Substation,FPL,
378446258,-80.2400319102,27.1672715919,substation,138000,60,,FPL,
128155556,-80.221154005,27.152559798,substation,138000,60,,FPL,
128236111,-80.2434101732,27.2216816337,substation,138000;14000,60,Rio Substation,FPL,
128155566,-80.2761204494,27.2498155149,substation,230000;138000;13000,60,Sandpiper Substation,FPL,
166846899,-81.5289468361,30.0581556287,substation,230000,60,Sampson Substation,FPL,
380094195,-81.451329906,30.0791556181,substation,138000,60,,Beaches Energy,
379347382,-80.1150575151,26.8116106481,substation,138000,60,,FPL,
125773400,-80.1147039205,26.7879618377,substation,138000;13800,60,Beeline Substation,FPL,
202508729,-81.8055179513,26.3778323893,substation,138000;24000,60,Imperial Substation,Florida Power and Light,
25470160,-81.833969858,26.4424738675,substation,138000;13000,60,Estero Substation,FPL,
378632635,-80.1012922935,26.2627864663,substation,138000;24000,60,Fashion Substation,FPL,
378632646,-80.1027096431,26.2759173665,substation,138000;13800,60,Sample Road Substation,FPL,
48742249,-80.1553778058,26.2790478318,substation,230000,60,Broward Substation,FPL,
378632643,-80.1040977695,26.3042617047,substation,138000;13800,60,Deerfield Beach Substation,FPL,
171308838,-80.2692147409,25.8089573504,substation,138000,60,Airport Substation,FPL,
322957780,-80.2006495293,26.3030950178,substation,0,60,Butterfly Substation,FPL,
322831950,-80.287825171,26.2869657015,substation,138000;14000,60,Westinghouse Substation,FPL,
378095133,-80.2650186033,25.7639539725,substation,138000;14000,60,Tamiami Substation,FPL,
115584297,-80.1128803249,26.587653646,substation,138000;13800,60,Osborne Substation,FPL,
132665891,-81.4889297893,30.3605155348,substation,230000;138000,60,Fort Caroline Substation,JEA,
85691274,-81.4868213019,30.2968289993,substation,230000;138000,60,Center Park Substation,JEA,
132665892,-81.4112385917,30.3712516711,substation,138000,60,Mayport Substation,JEA,
166791262,-81.5497784188,30.4182619667,substation,230000;138000,60,Northside Substation,JEA,
380061466,-81.5243765196,30.4065152169,substation,138000,60,Blount Island Substation,JEA,
127687249,-82.1491560895,26.4636917995,substation,138000;13000,60,Sanibel Substation,LCEC,
375938024,-82.0931487808,26.5631463672,substation,138000;13000,60,Pine Island Substation,LCEC,
128236115,-80.3327828377,27.381810377,substation,138000;13800,60,White City Substation,FPL,
379074118,-80.4158847539,27.5328648621,substation,230000;138000,60,Emerson Substation,FPL,
210765507,-80.3656417504,27.4300358062,substation,138000,60,Hartman Substation,Fort Pierce Utilities,
128236116,-80.0890190078,26.9712009831,substation,138000,60,,FPL,
129535688,-80.0733965454,26.9113179638,substation,138000;14000,60,Oakes Substation,FPL,
128155563,-80.1655732662,27.0474144115,substation,138000,60,Hobe Substation,FPL,
128155554,-80.1688468188,27.1097096045,substation,138000,60,,FPL,
380414556,-82.0243727859,26.8590214995,substation,138000;24000,60,,FPL,
164420806,-81.9768386933,26.9534864279,substation,230000;138000;69000,60,Charlotte Substation,Flordia Power and Light,
380398876,-82.0384431493,26.9122284055,substation,138000;24000,60,Cooper Substation,FPL,
102660724,-80.416092019,27.3720327922,substation,500000;230000;138000;13800,60,Midway Substation,,
128155555,-80.2874937344,27.27913037,substation,138000,60,,FPL,
168524410,-80.4685319957,25.4742573442,substation,138000,60,McMinn Substation,City of Homestead,
148781721,-80.4517327193,25.4637023494,substation,138000,60,Lucy Substation,City of Homestead,
168524411,-80.4286596908,25.4575747552,substation,138000,60,Renaissance Substation,City of Homestead,
48798566,-80.2186393146,26.1509971309,substation,138000;13800,60,McArthur Substation,FPL,
372083346,-81.4176257039,26.3971814305,substation,0,,Immokalee Substation No. 4,LCEC,
160170763,-81.3590050221,25.9078587465,substation,0,,Carnestown Substation,,
372145687,-81.417279214,26.3088101588,substation,0,,Ave Maria South Substation,LCEC,
372003514,-81.766297883,26.6427601987,substation,0,,Buckingham Substation,Florida Power & Light,
379533980,-80.1661568105,26.159404372,substation,138000,60,Dillard Substation,FPL,
377855196,-80.1400293325,26.1732543526,substation,138000,60,Oakland Park Substation,FPL,
133958488,-80.1491949491,26.1270418413,substation,138000,60,Sistrunk Substation,FPL,
379533982,-80.1457844123,26.1134416897,substation,138000,60,Orchid Substation,FPL,
379533983,-80.1312006483,26.1446649506,substation,138000;13800,60,Verena Substation,FPL,
255201961,-80.1210598285,25.8537669465,substation,138000,60,Roney Substation,FPL,
93153973,-81.6197508945,30.158921425,substation,138000,60,Mandarin Substation,JEA,
136161276,-81.61197148,30.1855226093,substation,138000,60,Hartley Substation,JEA,
93153974,-81.5270564283,30.3017542394,substation,230000;138000;69000,60,Robinwood Substation,JEA,
133792475,-81.59075954,30.2345040365,substation,138000,60,Philips Substation,JEA,
374838830,-81.8479541848,26.5714502056,substation,138000;13000,60,Metro Substation,Florida Power & Light,
372070148,-81.7608867964,26.6317143066,plant,0,,Waste-to-Energy Facility,Lee County Solid Waste Division,
379327167,-80.1534056452,26.0949959321,substation,138000;13800,60,Pinehurst Substation,FPL,
48829189,-80.198691522,26.0716077638,substation,230000;138000;13800,60,Lauderdale Substation,FPL,
157204116,-80.1864379099,26.1620228809,substation,138000;13800,60,Rock Island Substation,FPL,
380968835,-80.6161447748,28.4135126945,substation,138000,60,,,
368376530,-80.4768063663,25.6394360587,substation,138000,60,,FPL,
379890672,-81.6196184199,30.2587895415,substation,138000,60,Powers Substation,JEA,
48438736,-80.2207776807,26.6751968967,substation,138000;24000,60,Acme Substation,FPL,
136530386,-80.0566475423,26.8607786851,substation,138000;13800,60,Juno Beach Substation,FPL,
136647938,-80.0617781132,26.83772165,substation,138000,60,,FPL,
172365808,-80.1852010655,26.0985456585,substation,138000,60,,FPL,
172365809,-80.1859479868,26.1282647269,substation,138000,60,,FPL,
169917398,-80.2035691867,26.069706259,substation,0,,,,
224044143,-81.7840835344,26.7117602506,substation,138000;13000,60,,LCEC,
375938028,-81.9234671296,26.6541176065,substation,138000;13000,60,Tropic Isle Substation,LCEC,
380398877,-82.2241325151,26.9282721274,substation,138000;24000,60,McCall Substtaion,FPL,
158805911,-80.1119198412,26.6696799311,substation,138000;13800,60,Military Trail Substation,FPL,
378426180,-80.0660599372,26.7525660593,substation,138000,60,,FPL,
48914639,-80.0526659903,26.764596918,plant,0,,Riviera Power Plant,Flordia Power and Light,
379392910,-80.1422140656,26.7719035248,substation,138000,60,Recway Substation,FPL,
158310077,-80.0638257903,26.735159191,substation,138000;13800,60,Terminal Substation,FPL,
378426186,-80.1020527491,26.708504207,substation,138000;13800,60,Westward Substation,FPL,
172869113,-80.1019927134,26.7364843725,substation,138000;13800,60,Roebuck Substation,FPL,
48798620,-80.2174590125,26.1203453392,substation,138000;13800,60,Plantation Substation,FPL,
381061997,-80.548620958,28.0460662916,substation,138000;14000,60,Holland Park Substation,FPL,
98882909,-80.706505698,28.0436235798,substation,230000;138000,60,Malabar Substation,FPL,
162904958,-80.3094307321,25.9669083672,substation,0,,,,
85691288,-81.4200271401,30.316512149,substation,138000,60,Neptune Substation,JEA,
379392911,-80.1426208602,26.7752231055,substation,138000,60,Recway Substation,FPL,
126439323,-81.4069565491,30.2999569057,substation,138000,60,Penman Substation,Beaches Energy,
230587856,-80.4036685452,25.5372966261,substation,230000;138000;14000,60,Princeton Substation,FPL,
224445353,-82.3879426113,29.757039044,substation,138000,60,Deerhaven Substation,GVL,
403198408,-82.3904636955,29.7581905423,plant,0,60,Deerhaven Generating Station,Gainesville Regional Utilities,
224445355,-81.5982302702,30.4189582163,substation,138000,60,Eastport Substation,JEA,
379890667,-81.6352751605,30.4080125328,substation,138000,60,,JEA,
224445332,-81.6073312701,30.4224433397,plant,0,,Cedar Bay Generating Plant,Cogentrix,
379890609,-81.6270648972,30.3645587433,substation,138000,60,Kennedy Substation,JEA,
157199294,-80.188426332,26.2014445053,substation,138000;13800,60,Palm Aire Substation,FPL,
340438291,-80.1262909919,26.236464312,substation,138000,60,Ely Substation,FPL,
378095145,-80.2393226566,25.7570704483,substation,138000,60,Natoma Substation,FPL,
380061372,-81.4693691042,30.6308741405,substation,138000;69000;12400,60,Stepdown Substation,FPUC,
172116954,-81.9436449842,26.4865727014,substation,138000;24000,60,Iona Substation,Florida Power & Light,
284308899,-81.8292087129,26.4953891354,substation,230000;138000,60,Alico Substation,Flordia Power and Light,
384908579,-81.9014769663,26.5104419166,substation,138000;24000,60,Gladiolus Substation,Florida Power & Light,
375938020,-81.9749892626,26.5770290721,substation,138000;13000,60,Cape Coral Substation,LCEC,
375938026,-81.9555998234,26.5642314723,substation,138000;13000,60,South Cape Substation,LCEC,
375938022,-81.9346810168,26.6060651835,substation,138000;13000,60,Everest Substation,LCEC,
226592554,-82.0167098227,26.5633031005,substation,138000;13000,60,Aqualinda Substation,LCEC,
136161275,-81.601888557,30.2049458964,substation,138000,60,Craven Substation,JEA,
48856111,-80.0998432251,26.4108839924,substation,230000;138000,60,Yamato Substation,FPL,
323098111,-80.1090015556,26.3848449908,substation,0,,,,
435039289,-82.301870323,29.6827634793,substation,0,60,,,
380477053,-82.3071509091,29.7020377581,substation,138000,60,McMichen Substation,Gainesville Regional Utilities,
380477054,-82.3877524765,29.7042506224,substation,138000,60,Millhopper Substation,Gainesville Regional Utilities,
353567584,-80.5800633032,26.9963288907,substation,138000;24000,60,Port Mayaca Substation,FPL,
419594709,-80.5625031309,27.0577969439,plant,0,,Martin Power Plant,Florida Power & Light,
381201578,-80.71318509,26.6498777375,substation,138000;69000;14000,60,South Bay Substation,Florida Power & Light,
224044148,-81.9779248301,26.9552807668,substation,138000;14000,60,Cleveland Substation,Flordia Power and Light,
381201577,-80.0582896284,26.6515518245,substation,138000;24000,60,Norton Substation,Florida Power & Light,
130409928,-80.0688190394,26.6727845282,substation,138000;13800,60,Hillcrest Substation,FPL,
377722055,-80.0543048993,26.7650291851,substation,138000,60,,,
377711998,-80.0576416049,26.7785975402,substation,138000,60,,FPL,
161551564,-80.0982389331,26.6094264938,substation,138000,60,Canal Substation,LWU,
130409929,-80.066677488,26.6131586249,substation,138000,60,Lake Worth Main Substation,LWU,
378273040,-80.0719145412,26.5736261495,substation,138000,60,,LWU,
377855186,-80.1528858192,26.2791285977,substation,138000,60,Crystal Substation,FPL,
192892909,-80.1520339557,26.2426430002,substation,138000,60,,FPL,
230720738,-80.7949026386,28.3689734036,substation,230000;138000,60,Brevard Substation,FPL,
230720747,-80.7947602901,28.3668175001,substation,230000;138000,60,Oleander Substation,CST,
377712010,-80.0562900581,26.8034603472,substation,138000;13800,60,Lake Park Substation,FPL,
379596055,-82.5674705805,27.4471935566,substation,138000,60,,FPL,
172999952,-82.6119265925,27.4617656574,substation,230000;138000;24000;14000,60,Cortez Substation,FPL,
379596064,-82.596641675,27.4914648013,substation,138000;14000,60,Walker Substation,FPL,
369786243,-82.5495554246,27.4864438543,substation,138000;4000,60,Fruit Industries Substation,FPL,
380435861,-82.1340569858,29.8796376753,substation,138000;24000,60,Hampton Substation,FPL,
102309315,-80.6045569563,28.0415910654,substation,138000;14000,60,Harris Substation,FPL,
379477343,-80.5979935993,28.1423109656,substation,138000,60,Indian Harbour Substation,FPL,
225869527,-80.6053442264,28.1717725494,substation,138000,60,Satellite Substation,FPL,
376954208,-80.233174117,25.9276473947,substation,138000,60,,FPL,
230526311,-81.7014273097,26.0368039911,substation,138000;24000,60,Capri Substation,Florida Power & Light,
383227311,-81.712934489,25.9266428797,substation,138000;24000,60,Fred H. Smith Substation,LCEC,
377711997,-80.1543629396,26.2113678909,substation,138000,60,,FPL,
379074121,-80.6090680243,28.0845992106,substation,138000;13800,60,Melbourne Substation,FPL,
200535995,-80.0962210126,26.670233728,substation,138000,,,,
377468601,-80.452882212,25.0822848963,substation,138000,60,Key Largo Substation,FKEC,
125773399,-80.1066905043,26.7638810484,substation,138000,60,,FPL,
379074117,-80.6353500423,28.11446906,substation,138000;14000,60,Apollo Substation,FPL,
377577024,-80.2874220659,25.7087655278,substation,138000;13800,60,South Miami Substation,FPL,
377577026,-80.2942958124,25.734070707,substation,138000;14000,60,Bird Substation,FPL,
167823300,-80.3376718918,25.7054217327,substation,230000;138000,60,Galloway Substation,FPL,
377577027,-80.3049181792,25.6948960361,substation,138000;13800,60,Dadeland Substation,FPL,
48800411,-80.2988383687,25.6325505734,substation,0,,,,
380477044,-82.4553003503,29.7738109515,substation,138000,60,GE Alachua Substation,Gainesville Regional Utilities,
380477061,-82.4645916864,29.6961266497,substation,138000,60,Springhill Substation,Gainesville Regional Utilities,
380477045,-82.4728887001,29.6640910064,substation,138000,60,Fort Clarke Substation,Gainesville Regional Utilities,
380477056,-82.474355794,29.5653952967,substation,230000;138000,60,Parker Substation,Gainesville Regional Utilities,
380477051,-82.3559914323,29.6043364199,substation,138000,60,Idylwild Substation,PEF,
380477057,-82.3823419955,29.6139164509,substation,138000,60,Serenola Substation,Gainesville Regional Utilities,
122885863,-81.4005096343,30.2826803767,substation,138000,60,Jacksonville Beach Substation,Beaches Energy,
224014101,-81.7792331794,26.6968684373,substation,0,60,,Florida Power & Light,
224014107,-81.780252052,26.6990881405,substation,230000;138000,60,Fort Myers Switchyard,Florida Power & Light,
372083362,-81.7812916016,26.6977364254,generator,0,,,Florida Power & Light,
279187453,-80.3131468445,25.7894625876,substation,138000,60,,FPL,
375072557,-80.2865032345,25.8293278454,substation,138000;14000,60,Hialeah Substation,FPL,
378117954,-80.3268909835,25.6565132725,substation,138000;13800,60,Suniland Substation,FPL,
378117958,-80.3266421896,25.6759429108,substation,138000;13800,60,Kendall Substation,FPL,
378122061,-80.3051435225,25.7633549144,substation,138000,60,8th Street Cable Terminal,FPL,
292085720,-80.1968831951,25.7698664995,substation,138000,60,Downtown Substation,FPL,
379082631,-80.6240704886,27.991716548,substation,138000,60,Babcock Substation,FPL,
376971724,-82.3012412715,27.8555096464,substation,0,60,Riverview Substation,Tampa Electric,
375211486,-82.359082725,28.048044307,substation,230000,60,Davis Substation,Tampa Electric,
84893853,-82.4295681447,28.1146502772,substation,230000;69000,60,Chapman Substation,Tampa Electric,
105553161,-82.3417523058,27.9433265416,substation,230000,50,State Route 60 Substation,Tampa Electric,
172236804,-84.3981418385,30.4531044193,sub_station,0,,,,
160286847,-84.3996077908,30.1850887267,substation,230000;69000,60,Crawfordville Substation,Progress Energy,
172236819,-84.3460477291,30.4766697128,sub_station,0,,,,
165831924,-84.4889302532,30.8396297742,substation,0,,,,
172236816,-84.3776761839,30.468141295,sub_station,0,,,,
76171272,-81.4559447137,28.5784701208,sub_station,0,,Woodsmere Substation,Progress Energy,
47427308,-81.4548018575,28.4837569201,sub_station,0,,Windermere Substation,Progress Energy,
75778493,-81.4552077676,28.6728821158,sub_station,0,,Piedmont Substation,Progress Energy,
76167122,-81.45468189,28.6229904165,sub_station,0,,,Progress Energy,
230605090,-80.3718838465,25.8722962067,substation,230000;24000,60,Pennsuco Substation,FPL,
171477793,-80.368356706,25.8544990742,sub_station,0,,,,
140224304,-80.3111508086,25.8310338858,substation,230000;138000,60,Dade Substation,FPL,
61240408,-80.3536227648,25.8311700497,substation,0,,,,
61240112,-80.3800767994,25.8182772925,substation,230000,60,,FPL,
230605085,-80.3727723134,25.8722680513,substation,0,,,,
224872869,-80.3570476855,25.9272170301,substation,230000,60,,FPL,
368386475,-80.3265232462,25.8058163444,substation,230000;24000,60,Milam Substation,FPL,
376950004,-80.3284603913,25.8970396007,substation,230000,60,,FPL,
93155379,-81.5214873655,30.1924624816,sub_station,0,,,,
136134730,-81.5185688387,30.1585535354,substation,0,,,,
133792426,-81.537402275,30.2663325269,substation,230000,60,Forest Substation,JEA,
379183176,-82.558495772,28.3666715783,substation,230000,60,,,
93153977,-81.5291211924,30.1465291169,substation,230000;138000,60,Greenland Substation,JEA,
166846883,-81.5170822136,30.1600219762,plant,0,60,,,
69963866,-81.593788771,28.0055889561,substation,230000;69000,60,Dundee Substation,Progress Energy,
375971217,-81.6628828512,27.9028925035,substation,230000,60,West Lake Wales Substation,,
166791302,-81.8186369067,30.2244815104,substation,230000,60,JAX Heights Substation,JEA,
224445350,-81.554023294,30.4217502922,generator,0,,,,
379542204,-82.5519226643,27.5572197367,substation,230000;24000,60,Rubonia Substation,FPL,
35090698,-82.5406001135,27.6228037382,substation,230000;24000,60,Buckeye Substation,FPL,
379542202,-82.5310408874,27.5515660418,substation,230000,60,,FPL,
380371058,-82.3888212964,27.0979224213,substation,230000,60,,FPL,
165918674,-82.3512052419,27.0526569183,substation,230000,60,,FPL,
173711192,-84.2016374934,30.1882305009,substation,0,,,,
186847462,-84.6082282075,30.0482581155,substation,0,,,,
160286849,-82.7799786969,29.9532611617,substation,230000;115000;69000,60,Fort White Substation,Progress Energy,
182934473,-82.6765147325,29.8122394998,substation,0,,,,
162603371,-81.1782356632,28.2241761941,substation,230000,60,,,
162603370,-81.0866727928,28.146095434,substation,230000,60,Holopaw Substation,Progress Energy,
166791301,-81.5544891686,30.4343525063,substation,230000,60,,JEA,
166791258,-81.8166170064,30.3841489956,substation,230000,60,West Lake Substation,JEA,
419594711,-81.5507470186,30.431009492,plant,0,,Saint Johns River Power Plant,Flordia Power and Light,
160286861,-83.5593340107,30.1187528066,substation,230000;69000,60,Perry Substation,Progress Energy,
173711181,-83.1829128446,30.3714961274,sub_station,0,,,,
173711191,-83.6037793369,30.1615740032,sub_station,0,,,,
142172313,-81.3002473973,29.6563492467,substation,230000;115000;13000,60,Pellicer Substation,FPL,
147555348,-81.2681901542,29.4975533644,substation,230000;24000,60,Regis Substation,FPL,
381558938,-81.8888321065,27.9326896097,substation,230000,60,,City of Lakeland,
177529367,-81.9062006103,28.0119362935,substation,230000;69000,60,Eaton Park Substation,City of Lakeland,
381687268,-81.9005173311,27.8971910452,substation,230000;69000,60,Crews Lake Substation,City of Lakeland,
381760442,-81.806145617,28.0526415618,substation,230000,60,Recker Switching Station,TECO,
318169022,-81.8349148661,27.9085550863,substation,230000;69000,60,North Bartow Substation,Progress Energy,
87244162,-82.5105279951,28.1123276524,substation,230000;69000;13000,60,Dale Mabry Substation,Tampa Electric,
41203886,-82.3636340108,28.0441392815,substation,230000,60,Davis Substation,Tampa Electric,
35450590,-82.4822887556,27.3584234938,substation,230000,60,Ringling Switchyard,Florida Power & Light,
376795348,-80.1490351128,25.9666088333,substation,230000;14000,60,Aventura Substation,FPL,
48439509,-80.3767318587,26.7095969823,substation,500000;230000,60,Corbett Substation,Florida Power & Light Company,
160170760,-81.7688183844,26.6729474888,substation,500000;230000,60,Orange River Substation,FPL,
114916476,-80.3750985918,26.6970459029,plant,0,,West County Energy Center,Florida Power & Light Company,
47431899,-81.2139102891,28.4164795474,sub_station,0,,Magnolia Ranch North Substation,Orlando Utilities Commission,
47431918,-81.2830844166,28.3795551604,sub_station,230000,,Lake Nona Substation,Orlando Utilities Commission,
47538023,-81.5746512023,28.3030943165,substation,230000,,Osceola Substation,Orlando Utilities Commission,
69962263,-81.5336773215,28.2777737698,plant,0,,Cane Island Power Park,Kissimmee Utility Authority,
141423921,-81.4531629112,28.3917201402,sub_station,0,,Substation No. 26 Merriott South Termination Site,Orlando Utilities Commission,
74445880,-81.3542395167,28.4026246534,sub_station,0,,Airport Industrial Park Substation,Orlando Utilities Commission,
47467684,-81.2532882788,28.5044508963,sub_station,0,,Curry Ford Substation,Progress Energy,
70076943,-81.2536977389,28.5410378119,substation,230000;69000,60,Rio Pinar Substation,Progress Energy,
224565841,-81.1666118317,28.4880373997,generator,0,,Stanton Energy Center - A,,
224565842,-81.1665816167,28.486835771,generator,0,,Stanton Energy Center - B,,
420142864,-81.1685197448,28.4833163206,plant,0,,Stanton Energy Center,,
197314089,-85.2869460824,29.8113267587,substation,230000,60,Port Saint Joe Substation,Progress Energy,
380620843,-82.5796769434,29.6900965017,substation,230000,60,,Progress Energy,
380551972,-82.5942714309,29.6696405434,substation,230000,60,Newberry Substation,Progress Energy,
252573956,-81.3500527423,29.8563811301,substation,230000;115000,60,St. Johns Substation,FPL,
380094207,-81.51919858,29.8697727566,substation,230000,60,Tocoi Substation,FPL,
113527049,-82.582499159,28.0008530282,substation,230000;69000,60,Sheldon Road Substation,Tampa Electric,
145582607,-82.5913325282,28.0402198282,substation,230000;69000,60,Sheldon Road Substation,Tampa Electric,
98882946,-80.5249808648,27.6384594968,substation,138000,60,,FPL,
376950008,-80.3122347948,25.855760424,substation,230000,60,Roselawn Substation,FPL,
48830666,-80.3223077061,25.9056298307,substation,230000,60,Miami Lakes Substation,FPL,
230605089,-80.3703055271,25.7929962641,substation,230000,60,,FPL,
61240124,-80.3308899241,25.8301756517,sub_station,0,,,,
103061408,-80.4355239137,25.8133545275,substation,500000;230000,60,Levee Substation,,
154392866,-80.2965470998,26.1450566611,substation,230000;24000,60,Hiatus Substation,FPL,
289938318,-80.2967788893,26.1962020947,substation,500000,60,Conservation Substation,Florida Power & Light,
154392871,-80.2672489407,26.1798264552,substation,230000;24000,60,Springtree Substation,FPL,
379504532,-80.2966635383,26.1215912485,substation,230000,60,,FPL,
224059711,-82.0638557687,27.042449567,substation,230000,60,Peachland Substation,Florida Power & Light,
205146065,-82.0352996917,27.0182043001,substation,230000;24000,60,Deepcreek Substation,Florida Power & Light,
385259845,-82.1583400776,27.0901716275,substation,230000,60,,Flordia Power and Light,
224059713,-82.4306630591,27.3579668172,sub_station,0,,,,
47475022,-81.9551679045,28.816890316,substation,500000;230000;69000,60,Central Florida Substation,Progress Energy,
47475036,-81.6351552881,28.4843155867,sub_station,0,,Avalon Substation,Progress Energy,
47475034,-81.4669595494,28.491408591,sub_station,0,,MetroWest Substation,Orlando Utilities Commission,
403198407,-82.6965246784,28.9619644413,plant,0,,Crystal River Power Plant,,
192264529,-82.7728001638,27.913560616,substation,230000,60,Largo Substation,Progress Energy,
35091599,-82.7841286909,28.1842885377,substation,230000,60,Anclote Substation,Progress Energy,
186076839,-87.2711990427,30.6003683265,substation,0,,,,
230623593,-80.4087015442,25.9923386289,sub_station,0,,,,
164881303,-80.3768085107,25.9910355475,substation,230000;24000,60,Basscreek Substation,FPL,
103045010,-80.4396215539,26.0353577228,substation,500000;230000;35000,60,Andytown Substation,Flordia Power and Light,
186081666,-87.5081825172,30.5270892146,substation,230000;115000,60,,,
164881304,-80.3624586735,25.9772341372,sub_station,0,,,,
224115118,-82.4576765592,27.5805757806,sub_station,0,,,,
45589711,-82.4577135571,27.5518649847,sub_station,0,,,,
419594708,-82.3475564423,27.6081018021,plant,0,,Manatee Power Plant,Florida Powe r & Light,
224115123,-82.3455915714,27.603944916,sub_station,0,,,,
95339474,-82.3957629867,27.7972252503,substation,0,,,,
230277867,-82.1296545632,27.5152745413,substation,230000;69000,60,Keentown Substation,FPL,
32798600,-82.4558497247,27.4761138171,sub_station,0,,,,
75610550,-81.2847223524,28.6193694089,sub_station,0,,,Progress Energy,
75610553,-81.2852661549,28.6847237627,sub_station,0,,,Progress Energy,
75610554,-81.2600403984,28.5955024401,sub_station,0,,,Progress Energy,
75612060,-81.3461906848,28.7611946986,sub_station,0,,,Progress Energy,
75610877,-81.3370724928,28.7181329666,sub_station,0,,North Longwood Substation,Progress Energy,
75778491,-81.5081878239,28.7043218156,sub_station,0,,,Progress Energy,
75778499,-81.4169590025,28.702444247,sub_station,0,,,Progress Energy,
37394042,-82.2013064335,27.8559675684,substation,0,60,Fishhawk Substation,Tampa Electric,
223998652,-81.9409436313,27.8350052172,substation,230000;69000,60,Pebbledale Substation,TECO,
230281692,-81.8105034264,27.1513449708,sub_station,0,,,,
230281698,-81.9509977902,27.0442780996,sub_station,0,,,,
224044116,-81.77828784,26.7191105462,substation,230000,60,Calusa Substation,LCEC,
230277868,-81.8090531144,27.2245254108,substation,230000;69000,60,Whidden Substation,Flordia Power and Light,
47423968,-81.4527839339,28.437292394,sub_station,0,,Convention Center Substation,Orlando Utilities Commission,
47429571,-81.4409125244,28.4709890682,substation,0,,Southwood Substation,Orlando Utilities Commission,
165781987,-81.7543229502,26.4504321512,substation,230000;13000,,Corkscrew Substation,Florida Power & Light,
230526305,-81.7518393017,26.176178787,substation,230000;24000,60,Livingston Substation,FPL,
160462667,-80.130867443,26.4349028165,substation,230000,60,Hamlet Substation,FPL,
140104212,-80.3336202966,25.4356448061,substation,0,,,,
77706830,-80.51991698,25.4525846959,substation,0,,,,
143884839,-80.4532200851,25.7291475045,substation,230000;24000,60,Newton Substation,FPL,
107014791,-80.4133048059,25.6909541947,substation,138000;13800,60,Lindgren Substation,FPL,
69962262,-81.531642738,28.2769576703,substation,230000,60,Cane Island Substation,Kissimmee Utility Authority,
69342304,-81.5482235644,28.2637381534,plant,0,,Intercession City Plant,Progress Energy,
382840426,-81.4344111758,28.2781734664,substation,230000;69000,60,,Kissimmee Utility Authority,
224445357,-81.9238374907,28.0811959653,sub_station,0,,,,
172573218,-81.8011680454,27.3159260569,sub_station,0,,,,
381454670,-81.9621483396,27.6369009766,substation,230000,60,,Progress Energy,
381438623,-81.9258345341,27.5234955717,substation,230000,60,Vandolah Substation,Progress Energy,
373326806,-80.4181412633,25.7873097238,substation,230000,60,137th Avenue Substation,FPL,
93153968,-81.6016056504,30.0741230979,substation,230000,60,Switzerland Substation,JEA,
132645597,-81.5376439085,30.1073701473,substation,230000,60,Bartram Substation,JEA,
32741955,-82.4982725833,27.4906940487,substation,230000;24000,60,Castle Substation,FPL,
128236110,-80.3429961343,27.2369289065,substation,230000;24000,60,Tesoro Substation,FPL,
128236117,-80.3563250915,27.2730536244,substation,230000;24000,60,Turnpike Substation,FPL,
128155562,-80.3078817737,27.1676783401,substation,230000;24000,60,Crane Substation,,
128236112,-80.4805529619,27.2854494926,substation,230000;24000,60,Allapattah Substation,FPL,
379520142,-80.7778784703,27.2399168136,substation,230000;69000,60,Sherman Substation,FPL,
169917022,-80.3869979026,26.116050469,substation,230000,60,Trace Substation,FPL,
169917050,-80.4024735293,26.0593073312,substation,230000,60,,FPL,
84283181,-82.6545813535,28.0585405024,substation,500000;230000,60,Lake Tarpon Substation,,
103206048,-80.2492255411,27.3467498883,substation,230000,60,,FPL,
103187946,-80.4088760314,27.0339259209,substation,230000,60,Indiantown Substation,FPL,
372761209,-81.7688443356,26.6260181258,substation,230000;24000,60,Gateway Substation,Florida Power & Light,
185944704,-86.0598262861,30.9940511179,station,0,,,,
160199556,-86.2853865195,31.2378340487,sub_station,0,,Opp Substation,Powersouth Electric Cooperative,
372761219,-81.6200119304,26.2743425362,substation,230000;24000,60,Orangetree Substation,Florida Power & Light,
303334468,-81.6865921927,26.2319871383,substation,0,60,Weber Substation,Florida Power & Light,
200532654,-80.2861267814,26.9108176343,substation,230000,60,Alexander Substation,FPL,
136809210,-80.1643636497,26.8406698316,substation,230000,60,Ryder Substation,FPL,
136957674,-80.1110308153,26.8822174592,substation,230000;24000,60,Ross Substation,FPL,
381590862,-81.8878947105,27.8240181029,substation,230000,60,Barcola Substation,Progress Energy,
377977577,-82.4461191345,27.3309414132,substation,230000;24000,60,Sawgrass Substation,FPL,
382412268,-81.3344406534,28.9048164501,substation,0,,,,
75611448,-81.4119319297,28.6558248752,sub_station,0,,,Progress Energy,
378490372,-80.2345689542,26.0945518453,substation,230000,60,Davie Substation,FPL,
48467926,-80.1426479484,26.0602035807,substation,230000,60,Laudania Substation,,
170092175,-80.2869890657,26.0015573425,substation,230000;24000,60,Hollybrook Substation,FPL,
170092177,-80.3293290145,25.9006759801,substation,230000,60,,FPL,
70107930,-81.3766504844,28.4491955934,substation,230000;69000,60,Sky Lake Substation,Progress Energy,
380476937,-82.5053721117,29.5579714826,substation,230000,60,Archer Substation,Progress Energy,
85103397,-82.0268020155,28.2267227674,substation,500000,,Kathleen Substation,Florida Power Corporation,
166672286,-82.0392939501,28.083221591,substation,230000,60,Griffin Substation,,
381687269,-81.9215399253,28.0916163436,substation,230000,60,,City of Lakeland,
47537925,-81.8270085339,28.1550301034,substation,230000,60,Lake Agnes Substation,Tampa Electric,
160199541,-85.8771006635,30.6186716355,substation,230000,60,Shaky Joe Swamp Tap,Gulf Power,
378953179,-85.8431639141,30.676429097,substation,230000,60,Hinsons Crossroads Substation,Gulf Power,
382412266,-81.332784497,28.9057452253,substation,0,,,,
224445354,-81.9883960343,27.7319545424,substation,0,,,,
224445339,-81.9898331592,27.7266909907,plant,0,,Polk Power Station,TECO,
224445364,-81.9299012754,28.08670133,substation,230000;69000,60,McIntosh Substation,City of Lakeland,
238390674,-81.9811091724,28.0728217855,substation,230000,60,,City of Lakeland,
200033607,-81.9996039316,28.0318613146,substation,230000;69000,60,West Substation,City of Lakeland,
223975447,-82.4044317973,27.7992539803,generator,0,,,,
103206052,-80.2496128181,27.3459718804,substation,230000;13000,60,Hutchinson Island Substation,FPL,
159061003,-81.6724799179,30.7954965173,sub_station,0,,,,
174710421,-81.6061562336,30.6229923629,substation,230000,60,Yulee Substation,FPL,
160462664,-80.1444519556,26.4086567417,substation,230000,60,Clintmoore Substation,FPL,
103078971,-81.9474480638,30.3188355155,substation,230000,60,Brandy Branch Substation,JEA,
230526304,-81.6880609806,26.2026011927,substation,138000;13000,60,Golden Gate Substation,Flordia Power and Light,
379327166,-80.3563103724,25.8359931914,plant,0,,,,
377037949,-82.1468741527,27.9660292266,substation,230000,60,,Tampa Electric,
230701154,-80.2464862584,27.3486330748,plant,0,,Saint Lucie Power Plant,,
174398667,-83.1807306635,30.3754413008,substation,230000,60,,Progress Energy,
230720740,-80.7937427351,28.3687611326,sub_station,0,,,,
230720746,-80.7945050603,28.3654121344,plant,0,,Plant Oleander,Southern Power,
303178998,-81.4083567977,27.2663512655,substation,230000;69000;13000,60,Fisheating Creek Substation,Progress Energy,
351452804,-81.4932896768,27.5811139077,substation,230000;69000,60,Avon Park Substation,Progress Energy,
426044666,-81.5489265217,28.2641001777,substation,0,,,,
145184020,-81.1584658491,29.3543879453,substation,230000;24000,60,Eagle Substation,FPL,
145184018,-81.1556349751,29.253089297,substation,230000,60,,FPL,
102698274,-80.5605149706,27.0569503068,substation,500000;230000;138000,60,Martin Substation,FPL,
103187953,-80.5122098141,27.0404790096,substation,0,,,,
166776116,-81.8393541274,30.5711999943,sub_station,0,,,,
166776121,-81.8503011674,30.5605483843,sub_station,0,,,,
52068112,-81.9529539484,30.2723835656,substation,500000;230000,60,Duval Substation,Florida Power & Light,
379392906,-80.2639743394,27.0873019888,substation,230000,60,Hanson Substation,FPL,
128155558,-80.264759452,27.0478730113,substation,230000,60,Bridge Substation,FPL,
337677636,-82.3022239829,28.0438525238,substation,230000,60,Thonotosassa Substation,Tampa Electric,
422748737,-81.8739683816,27.7891154351,plant,0,,Hines Energy Complex,,
230526306,-81.7563695452,26.2740696887,substation,230000;24000,60,Vanderbilt Substation,Florida Power & Light,
381095276,-80.2229677145,25.7678700042,substation,230000;24000,60,Latin Quarter Substation,FPL,
377712007,-81.9892119367,30.2747143725,substation,230000;115000;13000,60,Baldwin Substation,FPL,
118673809,-80.1535753594,26.3060582072,substation,230000;14000,60,Lakeview Substation,FPL,
377053519,-80.1250351707,26.3160937682,substation,138000,60,Deerfield Beach Substation,FPL,
382922159,-81.8703028381,27.7908995496,substation,230000,60,,,
382908225,-81.8184872811,27.7488007696,substation,230000,60,Fort Meade Substation,,
379504542,-80.3210783209,26.0943739722,substation,230000;24000,60,Valencia Substation,FPL,
133111248,-81.1826258248,28.9195429372,substation,230000;24000,60,Deltona Substation,FPL,
378490374,-80.2347435337,26.0939138462,substation,230000,60,Davie Substation,FPL,
40431237,-87.7641031667,30.5540086706,substation,230000;115000,60,Silverhill Substation,Alabama Power Company,
174399124,-83.2243220392,30.8341326097,sub_station,0,,,,
235990210,-88.0107524333,31.0067858118,generator,0,,,,
166899377,-81.701890886,29.8676852109,sub_station,0,,,,
102954849,-81.6322708707,29.7295237989,substation,0,,,,
166899396,-81.7226348786,29.9399214552,sub_station,0,,,,
166899379,-81.6632793394,29.715252761,substation,0,,,,
166899403,-81.8889583481,29.7475074873,substation,0,,,,
166899394,-81.6767833306,29.6768787788,substation,0,60,,,
223981327,-82.6188881374,28.0625153676,sub_station,0,,,,
75609902,-81.7648563943,29.7230560578,substation,0,60,Rice Substation,Florida Power & Light,
453871517,-81.6314790391,29.7365803791,plant,0,60,Seminole Generating Station,Seminole Electric Cooperative,
363525978,-80.3752366802,26.6936408304,substation,0,,,,
166672327,-82.6988866716,28.9604314445,substation,500000;230000,60,Crystal River Substation,,
102957000,-82.0784106516,29.2293454882,substation,230000,60,Seminole Electric Cooperative Substation,,
102957006,-82.0788922313,29.2309334292,substation,0,,Gerald Eagle Electric Substation,,
102619845,-80.9154832428,28.3839829194,substation,500000,60,Poinsett Substation,Florida Power & Light,
166672284,-82.6972708531,28.9673786129,generator,0,60,Crystal River Power Plant,,
363525982,-80.3763750695,26.6992633846,substation,0,,,,
