n_id,longitude,latitude,type,voltage,frequency,name,operator
59261969,92.4025405863,55.9488482586,substation,220000-110000-10000,,"ПС ""Дивногорск""",
110542603,92.8687018678,56.1117599052,substation,220000,,"ПС №152 ""Новокрасноярская""",
198719682,92.9094384241,55.9822052389,substation,220000-110000-10000-6000,,"ПС ""Правобережная""",
116607512,101.721276014,56.3061733516,substation,None,,,
113555542,101.724690259,56.3063099104,generator,None,,ТЭЦ-7,
51129883,83.03917137,55.0097170305,substation,None,,Восточная,
51809085,82.9865069243,54.8538039326,plant,None,,Новосибирская ГЭС,
51857448,83.060647077,55.0072414363,generator,None,,ТЭЦ №5,
394149419,84.6334944559,56.8250859125,substation,220000,,Подстанция «Орловка»,
166018985,85.3416533235,56.6730811209,substation,500000,,Подстанция «Томская»,
48050741,93.003004774,56.1092041336,substation,500000-220000-35000-10000,,"ПС ""Красноярская""",
48050742,93.0217618237,56.0972625467,substation,220000,,ПС ЦРП 220 кВ,
220574879,93.0166946616,56.0978403317,substation,220000,,ОРУ / ГПП-3,
60040500,93.009792849,56.1027660294,substation,220000,,ОРУ / ГПП-5,
60040415,93.0269455082,56.0908004123,substation,220000,,ОРУ / ГПП-1,
95996044,92.7712289412,56.0240566056,substation,220000-110000-10000,,"ПС ""Левобережная""",
305389785,92.9774815867,56.1075760327,substation,500000-220000,,"ПС ""Енисей""",
60047767,93.0964413238,56.11062935,plant,220000,,Красноярская ТЭЦ-3,ОАО Енисейская территориальная генерирующая компания (ТГК-13)
105828925,93.3888316034,56.1109839059,substation,220000-110000-10000,,"ПС ""Узловая""",
435735615,93.0013386355,55.9943331288,substation,220000,,ОРУ 220 кВ,
168239171,89.8430642434,55.290078934,substation,220000,,Подстанция «Ужур»,
221635306,90.3212537242,53.9868654533,substation,None,,Подстанция «Сорская»,
228972838,90.0400251739,55.6911600987,substation,None,,,
141629044,100.663831557,54.5394419364,substation,500000-220000-110000-10000,,Тулун,
110601357,101.783829576,56.2951424912,substation,500000-220000,,,
113629981,101.751663861,56.3293256087,substation,220000-110000-35000-fixme,,,
167241850,81.4814060948,58.6524859471,substation,220000,,Подстанция «Парабель»,
169356997,82.8379111498,58.0420233547,substation,220000,,Подстанция «Чажемто-220»,
228023756,79.6618775227,59.3849699594,substation,220000,,Подстанция «Вертикос»,
245816959,90.9584637023,53.0442160403,substation,None,,,
82361665,91.3048204376,53.065691696,substation,500000,,Означенное,ФСК ЕЭС
60040328,93.0121797457,56.1008674562,substation,220000,,ОРУ / ГПП-4,
202649908,92.779806189,56.0023764298,substation,220000-110000-10000,,"ПС ""Октябрьская""",
116489400,101.590806702,56.1255646934,sub_station,None,,,
60040606,93.0215173427,56.0945219971,substation,220000,,ОРУ / ГПП-2,
77195444,85.0183680808,56.5214062588,substation,220000,,Подстанция «Восточная»,
123874057,85.0968802977,56.4539451807,substation,220000,,Подстанция «Зональная»,
341189940,86.1102428742,56.9529939742,station,None,,,
166616387,84.9107069247,56.6472375191,station,None,,ЭС-2 СХК,
189871845,83.9467025021,57.1053300175,substation,220000,,Подстанция «Володино-220»,
169671124,84.0785633561,56.5431671969,substation,220000,,Подстанция «Мельниково-220»,
131753194,91.2585784109,53.6629333804,substation,220000-110000-10000,,Абакан-Районная,
131753195,91.1814557693,53.6312081065,substation,500000-220000-fixme,,Подстанция «Абаканская»,
115163974,91.7464065991,53.6675513716,substation,220000,,Подстанция «Минусинск-Опорная»,
60040448,92.9768264559,56.0915720624,substation,220000,,"РПС ""КРАМЗ""",
308372785,92.9951792722,56.0878397824,substation,220000,,,
308372786,93.0001536249,56.0836209658,substation,220000,,,
60040627,93.0001608544,56.0905285094,substation,220000,,,
81603854,78.0963203674,53.7523784659,substation,None,,"ПС 220 кВ ""Урожай""",
88364440,78.0590768742,53.7490263556,station,220000,,Подстанция «Карасук-3 (тяговая)»,
240874260,113.775303651,51.7732706262,substation,None,,,
267191160,116.219531807,51.9018556949,substation,220000-110000-10000,,,
290406343,116.321881028,50.5164409188,substation,None,,,
271058766,116.010314022,51.8463847149,substation,None,,,
162583841,85.0387339142,56.6108132412,substation,220000,,Подстанция «ГПП-220»,
166616386,84.9109350039,56.6453705497,station,None,,ЭС-2 СХК,
76228618,85.0449897365,56.6230945425,generator,None,,ТЭЦ-3,
228960140,90.0145528241,55.7064553427,substation,None,,,
60040659,93.0063129284,56.1051348501,substation,220000,,ОРУ / ГПП-6,
191588676,78.0482630629,60.1350628024,substation,220000,,Подстанция «Чапаевка»,
130503101,77.1544504576,60.8416644437,substation,220000,,Подстанция «Советско-Соснинская»,
68522408,76.9336595851,60.9814268684,plant,None,,Нижневартовская ГРЭС,ОАО «Интер РАО – Электрогенерация»
223947264,91.349114048,53.1784061663,substation,500000,,Подстанция «Алюминиевая»,
227781890,91.3776086726,52.8385753769,substation,500000,50,КРУЭ-500 кВ,ОАО «РусГидро»
227781922,91.3802042662,52.8368848474,substation,500000,50,ОРУ-500 кВ,ОАО «РусГидро»
225711294,100.902440963,56.1882386462,substation,500000-220000,,Братский переключательный пункт,
113557354,101.785347244,56.2862518586,plant,None,,Братская ГЭС,
157280374,86.8337667583,53.8984859042,substation,500000,,ПС Новокузнецкая 500 кВ,
131767848,98.0589918677,55.9110719721,substation,500000-110000-35000,,Тайшет,
105831607,94.5030765554,56.1052265971,substation,None,,Камала-1,
97377449,78.4244337639,55.4392720099,substation,500000,,Подстанция «Барабинская»,
107673466,73.6460755471,54.6056796871,substation,500000-220000,,Подстанция «Таврическая»,
100584107,83.6682008623,53.5744830933,substation,500000,,Подстанция «Алтай»,
100584147,83.7610104897,53.5898825149,substation,500000,,Подстанция «Барнаульская»,
122224559,74.9407165848,53.9106771405,substation,500000-220000-110000,,"ПС 500 кВ ""Иртышская""",
110796857,103.867924408,52.4611738181,station,None,,"ПС 500/220/110 кВ ""Иркутская""",
228246728,104.056299559,52.1842346784,substation,500000-220000,,,
